[
  {
    "id": "ChIJg5VPiicRd4gR_Iz0W8z6C-A",
    "name": "Consume Cannabis - Carbondale",
    "city": "Carbondale",
    "state": "Illinois",
    "address": "201 E Main St #1A, Carbondale, IL 62901",
    "location": {
      "lat": 37.7271561,
      "lng": -89.215069
    },
    "url": "https://www.google.com/maps/search/?api=1&query=Consume%20Cannabis%20-%20Carbondale&query_place_id=ChIJg5VPiicRd4gR_Iz0W8z6C-A"
  },
  {
    "id": "ChIJu8ZostLXdogRNrCFWtoCsVk",
    "name": "Ash & Ivy Dispensary",
    "city": "Benton",
    "state": "Illinois",
    "address": "9 Rend Lake Rd, Benton, IL 62812",
    "location": {
      "lat": 37.9986051,
      "lng": -88.9399649
    },
    "url": "https://www.google.com/maps/search/?api=1&query=Ash%20%26%20Ivy%20Dispensary&query_place_id=ChIJu8ZostLXdogRNrCFWtoCsVk"
  },
  {
    "id": "ChIJvacZ7WQRd4gR0a6G1rGM0SQ",
    "name": "Key Cannabis Dispensary Carbondale",
    "city": "Carbondale",
    "state": "Illinois",
    "address": "1010 E Main St, Carbondale, IL 62901",
    "location": {
      "lat": 37.7289249,
      "lng": -89.2007705
    },
    "url": "https://www.google.com/maps/search/?api=1&query=Key%20Cannabis%20Dispensary%20Carbondale&query_place_id=ChIJvacZ7WQRd4gR0a6G1rGM0SQ"
  },
  {
    "id": "ChIJp7Xjoj65dogRk2gvXBQwzIU",
    "name": "Thrive Dispensary Mount Vernon",
    "city": "Mt Vernon",
    "state": "Illinois",
    "address": "800 S 45th St, Mt Vernon, IL 62864",
    "location": {
      "lat": 38.3084839,
      "lng": -88.951
    },
    "url": "https://www.google.com/maps/search/?api=1&query=Thrive%20Dispensary%20Mount%20Vernon&query_place_id=ChIJp7Xjoj65dogRk2gvXBQwzIU"
  },
  {
    "id": "ChIJz7ya03cRd4gRmQqEuSKh0rc",
    "name": "Carbondale Dispensary",
    "city": "Carbondale",
    "state": "Illinois",
    "address": "613 E Main St, Carbondale, IL 62901",
    "location": {
      "lat": 37.7275701,
      "lng": -89.2075127
    },
    "url": "https://www.google.com/maps/search/?api=1&query=Carbondale%20Dispensary&query_place_id=ChIJz7ya03cRd4gRmQqEuSKh0rc"
  },
  {
    "id": "ChIJf1LeC9LJdogR8BSfY98bDPM",
    "name": "Blyss Dispensary",
    "city": "Mt Vernon",
    "state": "Illinois",
    "address": "610 S 42nd St Suite B, Mt Vernon, IL 62864",
    "location": {
      "lat": 38.3099295,
      "lng": -88.9410785
    },
    "url": "https://www.google.com/maps/search/?api=1&query=Blyss%20Dispensary&query_place_id=ChIJf1LeC9LJdogR8BSfY98bDPM"
  },
  {
    "id": "ChIJeRekdVwRd4gRey0mV8-fBO4",
    "name": "Wellness Center Dispensary",
    "city": "Carbondale",
    "state": "Illinois",
    "address": "317 E Main St, Carbondale, IL 62901",
    "location": {
      "lat": 37.727261,
      "lng": -89.2118031
    },
    "url": "https://www.google.com/maps/search/?api=1&query=Wellness%20Center%20Dispensary&query_place_id=ChIJeRekdVwRd4gRey0mV8-fBO4"
  },
  {
    "id": "ChIJ5c1Mfmq3dogR4MBCO2sX1c0",
    "name": "Wellness Center Dispensary",
    "city": "Mt Vernon",
    "state": "Illinois",
    "address": "3300 Broadway St, Mt Vernon, IL 62864",
    "location": {
      "lat": 38.314859,
      "lng": -88.932521
    },
    "url": "https://www.google.com/maps/search/?api=1&query=Wellness%20Center%20Dispensary&query_place_id=ChIJ5c1Mfmq3dogR4MBCO2sX1c0"
  },
  {
    "id": "ChIJD4cyxeo7d4gRKodDIWNLa3k",
    "name": "Consume Cannabis - Marion",
    "city": "Marion",
    "state": "Illinois",
    "address": "8195 Express Dr, Marion, IL 62959",
    "location": {
      "lat": 37.7456392,
      "lng": -89.0072895
    },
    "url": "https://www.google.com/maps/search/?api=1&query=Consume%20Cannabis%20-%20Marion&query_place_id=ChIJD4cyxeo7d4gRKodDIWNLa3k"
  },
  {
    "id": "ChIJ82v4B7QDdogRhk5kCqkvoTQ",
    "name": "Mystic Greenz",
    "city": "Belleville",
    "state": "Illinois",
    "address": "360 S Green Mt Rd, Belleville, IL 62221",
    "location": {
      "lat": 38.5053619,
      "lng": -89.9277075
    },
    "url": "https://www.google.com/maps/search/?api=1&query=Mystic%20Greenz&query_place_id=ChIJ82v4B7QDdogRhk5kCqkvoTQ"
  },
  {
    "id": "ChIJMdCKPSfDcIgR1Hb4NExFiUQ",
    "name": "Thrive Dispensary Harrisburg",
    "city": "Harrisburg",
    "state": "Illinois",
    "address": "105 Veterans Dr, Harrisburg, IL 62946",
    "location": {
      "lat": 37.7495253,
      "lng": -88.5308331
    },
    "url": "https://www.google.com/maps/search/?api=1&query=Thrive%20Dispensary%20Harrisburg&query_place_id=ChIJMdCKPSfDcIgR1Hb4NExFiUQ"
  },
  {
    "id": "ChIJF5Rf8sABdogRnfm2iGZycps",
    "name": "Ascend Cannabis Dispensary - Fairview Heights",
    "city": "Fairview Heights",
    "state": "Illinois",
    "address": "114 Commerce Ln, Fairview Heights, IL 62208",
    "location": {
      "lat": 38.5987848,
      "lng": -89.9898919
    },
    "url": "https://www.google.com/maps/search/?api=1&query=Ascend%20Cannabis%20Dispensary%20-%20Fairview%20Heights&query_place_id=ChIJF5Rf8sABdogRnfm2iGZycps"
  },
  {
    "id": "ChIJ6b-vzFwDeogREHPIujwNEBE",
    "name": "Thrive Dispensary Metropolis",
    "city": "Metropolis",
    "state": "Illinois",
    "address": "1551 E 5th St, Metropolis, IL 62960",
    "location": {
      "lat": 37.1543284,
      "lng": -88.7127817
    },
    "url": "https://www.google.com/maps/search/?api=1&query=Thrive%20Dispensary%20Metropolis&query_place_id=ChIJ6b-vzFwDeogREHPIujwNEBE"
  },
  {
    "id": "ChIJr21OFMXTeYgR_ROVc_JKbvc",
    "name": "Mystic Greenz",
    "city": "Olive Branch",
    "state": "Illinois",
    "address": "26650 IL-3, Olive Branch, IL 62969",
    "location": {
      "lat": 37.1671535,
      "lng": -89.3473346
    },
    "url": "https://www.google.com/maps/search/?api=1&query=Mystic%20Greenz&query_place_id=ChIJr21OFMXTeYgR_ROVc_JKbvc"
  },
  {
    "id": "ChIJc9O55rEFeogRRzaLEHhtRCY",
    "name": "High Profile of Metropolis Dispensary",
    "city": "Metropolis",
    "state": "Illinois",
    "address": "1801 E 5th St, Metropolis, IL 62960",
    "location": {
      "lat": 37.1623283,
      "lng": -88.7012227
    },
    "url": "https://www.google.com/maps/search/?api=1&query=High%20Profile%20of%20Metropolis%20Dispensary&query_place_id=ChIJc9O55rEFeogRRzaLEHhtRCY"
  },
  {
    "id": "ChIJpQ7B434FeogRpeeti6F6QXM",
    "name": "BLOC Dispensary - Metropolis",
    "city": "Metropolis",
    "state": "Illinois",
    "address": "2125 E 5th St, Metropolis, IL 62960",
    "location": {
      "lat": 37.162521,
      "lng": -88.6874653
    },
    "url": "https://www.google.com/maps/search/?api=1&query=BLOC%20Dispensary%20-%20Metropolis&query_place_id=ChIJpQ7B434FeogRpeeti6F6QXM"
  },
  {
    "id": "ChIJA2xFtIpvd4gRIb4d5KWcrB8",
    "name": "Thrive Dispensary Anna",
    "city": "Anna",
    "state": "Illinois",
    "address": "87 Richview Dr, Anna, IL 62906",
    "location": {
      "lat": 37.4670867,
      "lng": -89.2273406
    },
    "url": "https://www.google.com/maps/search/?api=1&query=Thrive%20Dispensary%20Anna&query_place_id=ChIJA2xFtIpvd4gRIb4d5KWcrB8"
  },
  {
    "id": "ChIJsabA-cTJdogRsGnyWjiHnZQ",
    "name": "Green Liberty",
    "city": "Mt Vernon",
    "state": "Illinois",
    "address": "2221 S 10th St, Mt Vernon, IL 62864",
    "location": {
      "lat": 38.2944637,
      "lng": -88.9035247
    },
    "url": "https://www.google.com/maps/search/?api=1&query=Green%20Liberty&query_place_id=ChIJsabA-cTJdogRsGnyWjiHnZQ"
  },
  {
    "id": "ChIJp-3OJxWZdogRNwRlhTa_3dY",
    "name": "HIPPIES HEAVEN GIFT SHOP",
    "city": "Centralia",
    "state": "Illinois",
    "address": "433 S Locust St, Centralia, IL 62801",
    "location": {
      "lat": 38.5227421,
      "lng": -89.1352048
    },
    "url": "https://www.google.com/maps/search/?api=1&query=HIPPIES%20HEAVEN%20GIFT%20SHOP&query_place_id=ChIJp-3OJxWZdogRNwRlhTa_3dY"
  },
  {
    "id": "ChIJkW5Y2Hopd4gRblwqM38Ucf0",
    "name": "Frosted Hemp",
    "city": "West Frankfort",
    "state": "Illinois",
    "address": "215 N Logan St b, West Frankfort, IL 62896",
    "location": {
      "lat": 37.8999856,
      "lng": -88.932145
    },
    "url": "https://www.google.com/maps/search/?api=1&query=Frosted%20Hemp&query_place_id=ChIJkW5Y2Hopd4gRblwqM38Ucf0"
  },
  {
    "id": "ChIJhZiBpJgad4gR56oJKXvA7GQ",
    "name": "The Groove Shop",
    "city": "Benton",
    "state": "Illinois",
    "address": "120 E Main St, Benton, IL 62812",
    "location": {
      "lat": 37.996712,
      "lng": -88.919043
    },
    "url": "https://www.google.com/maps/search/?api=1&query=The%20Groove%20Shop&query_place_id=ChIJhZiBpJgad4gR56oJKXvA7GQ"
  },
  {
    "id": "ChIJuUgwdHGZdogRqLZIeiLsa_s",
    "name": "SMOKERS CITY",
    "city": "Centralia",
    "state": "Illinois",
    "address": "1235 W Broadway, Centralia, IL 62801",
    "location": {
      "lat": 38.5308394,
      "lng": -89.1567767
    },
    "url": "https://www.google.com/maps/search/?api=1&query=SMOKERS%20CITY&query_place_id=ChIJuUgwdHGZdogRqLZIeiLsa_s"
  },
  {
    "id": "ChIJYV9jRUY7d4gRMzJcY_GezGE",
    "name": "Squish Global, LLC",
    "city": "Marion",
    "state": "Illinois",
    "address": "1305 N Carbon St Suite 3, Marion, IL 62959",
    "location": {
      "lat": 37.7421342,
      "lng": -88.9475589
    },
    "url": "https://www.google.com/maps/search/?api=1&query=Squish%20Global%2C%20LLC&query_place_id=ChIJYV9jRUY7d4gRMzJcY_GezGE"
  },
  {
    "id": "ChIJwXtUdYk7d4gRknSDAeU-Dus",
    "name": "UVANTA Healthcare",
    "city": "Marion",
    "state": "Illinois",
    "address": "7846 Aviation Dr, Marion, IL 62959",
    "location": {
      "lat": 37.7459722,
      "lng": -89.0137463
    },
    "url": "https://www.google.com/maps/search/?api=1&query=UVANTA%20Healthcare&query_place_id=ChIJwXtUdYk7d4gRknSDAeU-Dus"
  },
  {
    "id": "ChIJs_JPIT23dogR5md4NWw5Slk",
    "name": "Main Street Smoke shop",
    "city": "Mt Vernon",
    "state": "Illinois",
    "address": "313 S 10th St, Mt Vernon, IL 62864",
    "location": {
      "lat": 38.3154018,
      "lng": -88.9037152
    },
    "url": "https://www.google.com/maps/search/?api=1&query=Main%20Street%20Smoke%20shop&query_place_id=ChIJs_JPIT23dogR5md4NWw5Slk"
  },
  {
    "id": "ChIJN7rKfRERd4gRit4fpmUda4c",
    "name": "Hemp-N-Stuff Head Shop",
    "city": "Carbondale",
    "state": "Illinois",
    "address": "706 E Walnut St, Carbondale, IL 62901",
    "location": {
      "lat": 37.7263493,
      "lng": -89.2060767
    },
    "url": "https://www.google.com/maps/search/?api=1&query=Hemp-N-Stuff%20Head%20Shop&query_place_id=ChIJN7rKfRERd4gRit4fpmUda4c"
  },
  {
    "id": "ChIJu4mV6HwTd4gRrw2pghICjSY",
    "name": "Legal Smile - Carbondale",
    "city": "Carbondale",
    "state": "Illinois",
    "address": "819 S Illinois Ave, Carbondale, IL 62901",
    "location": {
      "lat": 37.718576,
      "lng": -89.215733
    },
    "url": "https://www.google.com/maps/search/?api=1&query=Legal%20Smile%20-%20Carbondale&query_place_id=ChIJu4mV6HwTd4gRrw2pghICjSY"
  },
  {
    "id": "ChIJR4YjJTPXdogRBZOXPoPsupg",
    "name": "SMOKY VAPE & MORE",
    "city": "Benton",
    "state": "Illinois",
    "address": "100 N Central St, Benton, IL 62812",
    "location": {
      "lat": 37.9975889,
      "lng": -88.9374576
    },
    "url": "https://www.google.com/maps/search/?api=1&query=SMOKY%20VAPE%20%26%20MORE&query_place_id=ChIJR4YjJTPXdogRBZOXPoPsupg"
  },
  {
    "id": "ChIJ_1jtsIM4dogRxdu3xwxsqhk",
    "name": "LK Pure Labs",
    "city": "Sparta",
    "state": "Illinois",
    "address": "10550 State Rte 4, Sparta, IL 62286",
    "location": {
      "lat": 38.1937304,
      "lng": -89.6955753
    },
    "url": "https://www.google.com/maps/search/?api=1&query=LK%20Pure%20Labs&query_place_id=ChIJ_1jtsIM4dogRxdu3xwxsqhk"
  },
  {
    "id": "ChIJDX_5QKopdogRN_bPiNEfUzI",
    "name": "Evansville Water Dispensary/Welcome Center",
    "city": "Evansville",
    "state": "Illinois",
    "address": "202 Broad St, Evansville, IL 62242",
    "location": {
      "lat": 38.0919192,
      "lng": -89.9377094
    },
    "url": "https://www.google.com/maps/search/?api=1&query=Evansville%20Water%20Dispensary%2FWelcome%20Center&query_place_id=ChIJDX_5QKopdogRN_bPiNEfUzI"
  },
  {
    "id": "ChIJW4neSTQjdogRSyIPXHTUqWo",
    "name": "Wilson Green Compass CBD",
    "city": "New Athens",
    "state": "Illinois",
    "address": "Brooke Ln, New Athens, IL 62264",
    "location": {
      "lat": 38.3117771,
      "lng": -89.8591335
    },
    "url": "https://www.google.com/maps/search/?api=1&query=Wilson%20Green%20Compass%20CBD&query_place_id=ChIJW4neSTQjdogRSyIPXHTUqWo"
  },
  {
    "id": "ChIJUem46UfDcIgRNGUZB48kbl8",
    "name": "Thrive",
    "city": "Harrisburg",
    "state": "Illinois",
    "address": "105 Veterans Dr, Harrisburg, IL 62946",
    "location": {
      "lat": 37.7496833,
      "lng": -88.5308631
    },
    "url": "https://www.google.com/maps/search/?api=1&query=Thrive&query_place_id=ChIJUem46UfDcIgRNGUZB48kbl8"
  },
  {
    "id": "ChIJwZCE7uqZdogRfnO0zBuwCis",
    "name": "5 STAR TOBACCO & VAPE",
    "city": "Centralia",
    "state": "Illinois",
    "address": "224 N Elm St A, Centralia, IL 62801",
    "location": {
      "lat": 38.5291137,
      "lng": -89.1311088
    },
    "url": "https://www.google.com/maps/search/?api=1&query=5%20STAR%20TOBACCO%20%26%20VAPE&query_place_id=ChIJwZCE7uqZdogRfnO0zBuwCis"
  },
  {
    "id": "ChIJD0Y_qIJtcYgRgM0nPubf-Sc",
    "name": "PUFF HUFF SMOKE & VAPE",
    "city": "Fairfield",
    "state": "Illinois",
    "address": "1003 Commerce Drive, Fairfield, IL 62837",
    "location": {
      "lat": 38.3779217,
      "lng": -88.3893322
    },
    "url": "https://www.google.com/maps/search/?api=1&query=PUFF%20HUFF%20SMOKE%20%26%20VAPE&query_place_id=ChIJD0Y_qIJtcYgRgM0nPubf-Sc"
  },
  {
    "id": "ChIJIY5FZnLDcIgRysJBQRaZhLk",
    "name": "Legal Smile - Harrisburg",
    "city": "Harrisburg",
    "state": "Illinois",
    "address": "100 N Gum St, Harrisburg, IL 62946",
    "location": {
      "lat": 37.7394022,
      "lng": -88.5330771
    },
    "url": "https://www.google.com/maps/search/?api=1&query=Legal%20Smile%20-%20Harrisburg&query_place_id=ChIJIY5FZnLDcIgRysJBQRaZhLk"
  },
  {
    "id": "ChIJ_W_kGZOKdogRtWX3jlO7BXI",
    "name": "RollnUp Smoke Shop And Liquor",
    "city": "Nashville",
    "state": "Illinois",
    "address": "274 E St Louis St, Nashville, IL 62263",
    "location": {
      "lat": 38.3432879,
      "lng": -89.3810152
    },
    "url": "https://www.google.com/maps/search/?api=1&query=RollnUp%20Smoke%20Shop%20And%20Liquor&query_place_id=ChIJ_W_kGZOKdogRtWX3jlO7BXI"
  },
  {
    "id": "ChIJ1TfzSK0DdogRatU-z2D-3_Y",
    "name": "Vapex Smoke Shop",
    "city": "Swansea",
    "state": "Illinois",
    "address": "1718 N Illinois St, Swansea, IL 62226",
    "location": {
      "lat": 38.5333082,
      "lng": -89.9840326
    },
    "url": "https://www.google.com/maps/search/?api=1&query=Vapex%20Smoke%20Shop&query_place_id=ChIJ1TfzSK0DdogRatU-z2D-3_Y"
  },
  {
    "id": "ChIJF4GijNokd4gRgQ-mfd6Ufhk",
    "name": "2-4-1 Outdoor Pest and Weed Control",
    "city": "Marion",
    "state": "Illinois",
    "address": "901 E Deyoung St, Marion, IL 62959",
    "location": {
      "lat": 37.7401082,
      "lng": -88.9162761
    },
    "url": "https://www.google.com/maps/search/?api=1&query=2-4-1%20Outdoor%20Pest%20and%20Weed%20Control&query_place_id=ChIJF4GijNokd4gRgQ-mfd6Ufhk"
  },
  {
    "id": "ChIJzXhmBP6YdogRxA5uaIPzusk",
    "name": "RollnUp Smoke Shop & Liquor",
    "city": "Centralia",
    "state": "Illinois",
    "address": "320 E Noleman St, Centralia, IL 62801",
    "location": {
      "lat": 38.5287723,
      "lng": -89.1313465
    },
    "url": "https://www.google.com/maps/search/?api=1&query=RollnUp%20Smoke%20Shop%20%26%20Liquor&query_place_id=ChIJzXhmBP6YdogRxA5uaIPzusk"
  },
  {
    "id": "ChIJO2u1aMa92IcRZ5USy3x8tzg",
    "name": "VaporWize Waterloo",
    "city": "Waterloo",
    "state": "Illinois",
    "address": "742 N Market St c2, Waterloo, IL 62298",
    "location": {
      "lat": 38.3511425,
      "lng": -90.1503222
    },
    "url": "https://www.google.com/maps/search/?api=1&query=VaporWize%20Waterloo&query_place_id=ChIJO2u1aMa92IcRZ5USy3x8tzg"
  },
  {
    "id": "ChIJfZmCtLcDdogRkReCUEA4h8k",
    "name": "CBD Kratom Belleville",
    "city": "Belleville",
    "state": "Illinois",
    "address": "2630 Mascoutah Ave Suite 102, Belleville, IL 62221",
    "location": {
      "lat": 38.5060201,
      "lng": -89.926562
    },
    "url": "https://www.google.com/maps/search/?api=1&query=CBD%20Kratom%20Belleville&query_place_id=ChIJfZmCtLcDdogRkReCUEA4h8k"
  },
  {
    "id": "ChIJt9XnNoTjdogRYDMNMm3qTl0",
    "name": "Puff Huff Smoke & Vape",
    "city": "Du Quoin",
    "state": "Illinois",
    "address": "214 Southtowne Shopping Ctrr, Du Quoin, IL 62832",
    "location": {
      "lat": 37.9952037,
      "lng": -89.2366329
    },
    "url": "https://www.google.com/maps/search/?api=1&query=Puff%20Huff%20Smoke%20%26%20Vape&query_place_id=ChIJt9XnNoTjdogRYDMNMm3qTl0"
  },
  {
    "id": "ChIJQz8iSi8Qd4gRKRz5X9lJE-Y",
    "name": "Ieso, LLC",
    "city": "Murphysboro",
    "state": "Illinois",
    "address": "3235 New Era Rd, Murphysboro, IL 62966",
    "location": {
      "lat": 37.773119,
      "lng": -89.2410335
    },
    "url": "https://www.google.com/maps/search/?api=1&query=Ieso%2C%20LLC&query_place_id=ChIJQz8iSi8Qd4gRKRz5X9lJE-Y"
  },
  {
    "id": "ChIJeY42j_XHdogRdIFF_Q1zEAg",
    "name": "Flying J",
    "city": "Mt Vernon",
    "state": "Illinois",
    "address": "101 S 45th St, Mt Vernon, IL 62864",
    "location": {
      "lat": 38.3110553,
      "lng": -88.9570572
    },
    "url": "https://www.google.com/maps/search/?api=1&query=Flying%20J&query_place_id=ChIJeY42j_XHdogRdIFF_Q1zEAg"
  },
  {
    "id": "ChIJs9EEYI23dogRqXbZ25kEvJQ",
    "name": "smoke smart",
    "city": "Mt Vernon",
    "state": "Illinois",
    "address": "410 S 27th St, Mt Vernon, IL 62864",
    "location": {
      "lat": 38.3131805,
      "lng": -88.9239868
    },
    "url": "https://www.google.com/maps/search/?api=1&query=smoke%20smart&query_place_id=ChIJs9EEYI23dogRqXbZ25kEvJQ"
  },
  {
    "id": "ChIJ17jtCADIdogRBo-GYciITsQ",
    "name": "Fortysecond Street Plaza Shopping Center",
    "city": "Mt Vernon",
    "state": "Illinois",
    "address": "S 42nd St, Mt Vernon, IL 62864",
    "location": {
      "lat": 38.3099579,
      "lng": -88.9411028
    },
    "url": "https://www.google.com/maps/search/?api=1&query=Fortysecond%20Street%20Plaza%20Shopping%20Center&query_place_id=ChIJ17jtCADIdogRBo-GYciITsQ"
  },
  {
    "id": "ChIJqwk9-5TXdogRW-cfOPw80h0",
    "name": "Jerrie SI Vapor",
    "city": "Benton",
    "state": "Illinois",
    "address": "1310 N Main St Suite B, Benton, IL 62812",
    "location": {
      "lat": 38.010483,
      "lng": -88.9203749
    },
    "url": "https://www.google.com/maps/search/?api=1&query=Jerrie%20SI%20Vapor&query_place_id=ChIJqwk9-5TXdogRW-cfOPw80h0"
  },
  {
    "id": "ChIJI7cpy8fNd4gRh2ncXcjOuL4",
    "name": "Spinach Can Collectibles",
    "city": "Chester",
    "state": "Illinois",
    "address": "1001 State St, Chester, IL 62233",
    "location": {
      "lat": 37.9122603,
      "lng": -89.8234675
    },
    "url": "https://www.google.com/maps/search/?api=1&query=Spinach%20Can%20Collectibles&query_place_id=ChIJI7cpy8fNd4gRh2ncXcjOuL4"
  },
  {
    "id": "ChIJHxusTEE6d4gRwNFuIO1Vw2I",
    "name": "Speakeasy Liquors",
    "city": "Marion",
    "state": "Illinois",
    "address": "1310 Halfway Rd, Marion, IL 62959",
    "location": {
      "lat": 37.7447889,
      "lng": -88.9658277
    },
    "url": "https://www.google.com/maps/search/?api=1&query=Speakeasy%20Liquors&query_place_id=ChIJHxusTEE6d4gRwNFuIO1Vw2I"
  },
  {
    "id": "ChIJP2wt-BU7d4gRswR4YANoxq0",
    "name": "Legal Smile Marion",
    "city": "Marion",
    "state": "Illinois",
    "address": "1120 N Carbon St # 50, Marion, IL 62959",
    "location": {
      "lat": 37.73966,
      "lng": -88.94967
    },
    "url": "https://www.google.com/maps/search/?api=1&query=Legal%20Smile%20Marion&query_place_id=ChIJP2wt-BU7d4gRswR4YANoxq0"
  },
  {
    "id": "ChIJTwgsHEgTd4gRC88ebY75F4c",
    "name": "Gro Up Gardening Carbondale",
    "city": "Carbondale",
    "state": "Illinois",
    "address": "1325 Giant City Rd, Carbondale, IL 62902",
    "location": {
      "lat": 37.7071461,
      "lng": -89.1850962
    },
    "url": "https://www.google.com/maps/search/?api=1&query=Gro%20Up%20Gardening%20Carbondale&query_place_id=ChIJTwgsHEgTd4gRC88ebY75F4c"
  },
  {
    "id": "ChIJ3fQUc6o-d4gRCZyVvqBIIPo",
    "name": "River to River Cooperative Weed Management Area",
    "city": "Marion",
    "state": "Illinois",
    "address": "8588 IL-148, Marion, IL 62959",
    "location": {
      "lat": 37.7194842,
      "lng": -89.0213247
    },
    "url": "https://www.google.com/maps/search/?api=1&query=River%20to%20River%20Cooperative%20Weed%20Management%20Area&query_place_id=ChIJ3fQUc6o-d4gRCZyVvqBIIPo"
  },
  {
    "id": "ChIJ4cHb36TDcIgRxSyrnC8Hwis",
    "name": "Shawnee Hills Antique Mall",
    "city": "Harrisburg",
    "state": "Illinois",
    "address": "34 Veterans Dr, Harrisburg, IL 62946",
    "location": {
      "lat": 37.7483146,
      "lng": -88.5302212
    },
    "url": "https://www.google.com/maps/search/?api=1&query=Shawnee%20Hills%20Antique%20Mall&query_place_id=ChIJ4cHb36TDcIgRxSyrnC8Hwis"
  },
  {
    "id": "ChIJy7Mz40w6d4gRPHr2z2O3RYY",
    "name": "Vapors 4 U",
    "city": "Marion",
    "state": "Illinois",
    "address": "2402 Williamson County Pkwy Ste A1, Marion, IL 62959",
    "location": {
      "lat": 37.7463502,
      "lng": -88.9690614
    },
    "url": "https://www.google.com/maps/search/?api=1&query=Vapors%204%20U&query_place_id=ChIJy7Mz40w6d4gRPHr2z2O3RYY"
  },
  {
    "id": "ChIJjQ4OKqM8d4gRL6oJK2hTXBw",
    "name": "RollnUp",
    "city": "Herrin",
    "state": "Illinois",
    "address": "1606 S Park Ave, Herrin, IL 62948",
    "location": {
      "lat": 37.7882574,
      "lng": -89.0269689
    },
    "url": "https://www.google.com/maps/search/?api=1&query=RollnUp&query_place_id=ChIJjQ4OKqM8d4gRL6oJK2hTXBw"
  },
  {
    "id": "ChIJUSo0Iww6d4gRHl9nQmGrQjU",
    "name": "Jerries SI Vapors",
    "city": "Marion",
    "state": "Illinois",
    "address": "714 N Carbon St Ste 3, Marion, IL 62959",
    "location": {
      "lat": 37.7356791,
      "lng": -88.9475862
    },
    "url": "https://www.google.com/maps/search/?api=1&query=Jerries%20SI%20Vapors&query_place_id=ChIJUSo0Iww6d4gRHl9nQmGrQjU"
  },
  {
    "id": "ChIJk0F8kAYpd4gR_lL5OAhxqig",
    "name": "Take Action Today",
    "city": "West Frankfort",
    "state": "Illinois",
    "address": "410 W St Louis St, West Frankfort, IL 62896",
    "location": {
      "lat": 37.9000234,
      "lng": -88.9340346
    },
    "url": "https://www.google.com/maps/search/?api=1&query=Take%20Action%20Today&query_place_id=ChIJk0F8kAYpd4gR_lL5OAhxqig"
  },
  {
    "id": "ChIJE6RjZt8Rd4gRsgTiHOuWcSk",
    "name": "Vegas Vape Shop",
    "city": "Carbondale",
    "state": "Illinois",
    "address": "516 S Illinois Ave, Carbondale, IL 62901",
    "location": {
      "lat": 37.7223177,
      "lng": -89.2165746
    },
    "url": "https://www.google.com/maps/search/?api=1&query=Vegas%20Vape%20Shop&query_place_id=ChIJE6RjZt8Rd4gRsgTiHOuWcSk"
  },
  {
    "id": "ChIJydimzQGZdogRBidtIOHVBek",
    "name": "Misfit Vape Co.",
    "city": "Centralia",
    "state": "Illinois",
    "address": "124 S Poplar St, Centralia, IL 62801",
    "location": {
      "lat": 38.5266675,
      "lng": -89.1332685
    },
    "url": "https://www.google.com/maps/search/?api=1&query=Misfit%20Vape%20Co.&query_place_id=ChIJydimzQGZdogRBidtIOHVBek"
  },
  {
    "id": "ChIJs9KO2XsRd4gRFjcRUCPh9cU",
    "name": "Weed Man Lawn Care",
    "city": "Marion",
    "state": "Illinois",
    "address": "1309 Cornell Ave, Marion, IL 62959",
    "location": {
      "lat": 37.7424662,
      "lng": -88.9513096
    },
    "url": "https://www.google.com/maps/search/?api=1&query=Weed%20Man%20Lawn%20Care&query_place_id=ChIJs9KO2XsRd4gRFjcRUCPh9cU"
  },
  {
    "id": "ChIJVf4w-mnddogRdr_SGV5TfPM",
    "name": "The Luna Lounge",
    "city": "Sesser",
    "state": "Illinois",
    "address": "223 E Franklin Ave, Sesser, IL 62884",
    "location": {
      "lat": 38.0915719,
      "lng": -89.0479076
    },
    "url": "https://www.google.com/maps/search/?api=1&query=The%20Luna%20Lounge&query_place_id=ChIJVf4w-mnddogRdr_SGV5TfPM"
  },
  {
    "id": "ChIJtaCCrkdZDYgR8_L8AwaffIo",
    "name": "Sunnyside Cannabis Dispensary - Danville",
    "city": "Danville",
    "state": "Illinois",
    "address": "369 Lynch Dr, Danville, IL 61834",
    "location": {
      "lat": 40.122992,
      "lng": -87.5416198
    },
    "url": "https://www.google.com/maps/search/?api=1&query=Sunnyside%20Cannabis%20Dispensary%20-%20Danville&query_place_id=ChIJtaCCrkdZDYgR8_L8AwaffIo"
  },
  {
    "id": "ChIJcRd-D3lRDYgRbWPioDnBZK4",
    "name": "Parkway Dispensary Tilton",
    "city": "Tilton",
    "state": "Illinois",
    "address": "2 Donna Dr Suite 1, Tilton, IL 61832",
    "location": {
      "lat": 40.0888008,
      "lng": -87.6339366
    },
    "url": "https://www.google.com/maps/search/?api=1&query=Parkway%20Dispensary%20Tilton&query_place_id=ChIJcRd-D3lRDYgRbWPioDnBZK4"
  },
  {
    "id": "ChIJNwogMR7nDYgR2xyqDSoCkao",
    "name": "Aroma Hill Dispensary - Kankakee",
    "city": "Kankakee",
    "state": "Illinois",
    "address": "2255 E Court St, Kankakee, IL 60901",
    "location": {
      "lat": 41.1197058,
      "lng": -87.8324849
    },
    "url": "https://www.google.com/maps/search/?api=1&query=Aroma%20Hill%20Dispensary%20-%20Kankakee&query_place_id=ChIJNwogMR7nDYgR2xyqDSoCkao"
  },
  {
    "id": "ChIJd2IibKLnDYgRzYQcNyyA6kY",
    "name": "Green Releaf Weed Dispensary Bourbonnais",
    "city": "Bourbonnais",
    "state": "Illinois",
    "address": "1660 IL-50, Bourbonnais, IL 60914",
    "location": {
      "lat": 41.176063,
      "lng": -87.8508059
    },
    "url": "https://www.google.com/maps/search/?api=1&query=Green%20Releaf%20Weed%20Dispensary%20Bourbonnais&query_place_id=ChIJd2IibKLnDYgRzYQcNyyA6kY"
  },
  {
    "id": "ChIJzb-vvS_1cogRKC32OKJEAUo",
    "name": "High Profile of Martinsville Dispensary",
    "city": "Martinsville",
    "state": "Illinois",
    "address": "3001 N York St, Martinsville, IL 62442",
    "location": {
      "lat": 39.3617876,
      "lng": -87.8832773
    },
    "url": "https://www.google.com/maps/search/?api=1&query=High%20Profile%20of%20Martinsville%20Dispensary&query_place_id=ChIJzb-vvS_1cogRKC32OKJEAUo"
  },
  {
    "id": "ChIJyfvwdePnDYgRLUuvUHZNNMA",
    "name": "Phili Dispensary",
    "city": "Bourbonnais",
    "state": "Illinois",
    "address": "1300 Locke Dr, Bourbonnais, IL 60914",
    "location": {
      "lat": 41.1630207,
      "lng": -87.847454
    },
    "url": "https://www.google.com/maps/search/?api=1&query=Phili%20Dispensary&query_place_id=ChIJyfvwdePnDYgRLUuvUHZNNMA"
  },
  {
    "id": "ChIJe21_w84FcogRHd1HByHikeQ",
    "name": "HERB SOCIAL Cannabis Dispensary",
    "city": "Lawrenceville",
    "state": "Illinois",
    "address": "616 12th St, Lawrenceville, IL 62439",
    "location": {
      "lat": 38.7299574,
      "lng": -87.6829409
    },
    "url": "https://www.google.com/maps/search/?api=1&query=HERB%20SOCIAL%20Cannabis%20Dispensary&query_place_id=ChIJe21_w84FcogRHd1HByHikeQ"
  },
  {
    "id": "ChIJJfLKZivXDIgRzc7BF0fGC-Q",
    "name": "Sunnyside Cannabis Dispensary - Champaign",
    "city": "Champaign",
    "state": "Illinois",
    "address": "1704 S Neil St Ste C, Champaign, IL 61820",
    "location": {
      "lat": 40.0956632,
      "lng": -88.2447068
    },
    "url": "https://www.google.com/maps/search/?api=1&query=Sunnyside%20Cannabis%20Dispensary%20-%20Champaign&query_place_id=ChIJJfLKZivXDIgRzc7BF0fGC-Q"
  },
  {
    "id": "ChIJ9RRL2ogxDogRqjWZpeul2FM",
    "name": "Star Buds Cannabis Dispensary Burbank",
    "city": "Burbank",
    "state": "Illinois",
    "address": "7844 S Cicero Ave, Burbank, IL 60459",
    "location": {
      "lat": 41.7498198,
      "lng": -87.7418198
    },
    "url": "https://www.google.com/maps/search/?api=1&query=Star%20Buds%20Cannabis%20Dispensary%20Burbank&query_place_id=ChIJ9RRL2ogxDogRqjWZpeul2FM"
  },
  {
    "id": "ChIJz06jCZ7XDIgRvcf5Ecuj2L8",
    "name": "nuEra Urbana Dispensary",
    "city": "Urbana",
    "state": "Illinois",
    "address": "105 E University Ave, Urbana, IL 61801",
    "location": {
      "lat": 40.1160704,
      "lng": -88.206299
    },
    "url": "https://www.google.com/maps/search/?api=1&query=nuEra%20Urbana%20Dispensary&query_place_id=ChIJz06jCZ7XDIgRvcf5Ecuj2L8"
  },
  {
    "id": "ChIJQW9tT-zbDIgR592MG1nvVrg",
    "name": "Cloud9 Cannabis",
    "city": "Champaign",
    "state": "Illinois",
    "address": "505 W Town Center Blvd, Champaign, IL 61822",
    "location": {
      "lat": 40.141846,
      "lng": -88.251267
    },
    "url": "https://www.google.com/maps/search/?api=1&query=Cloud9%20Cannabis&query_place_id=ChIJQW9tT-zbDIgR592MG1nvVrg"
  },
  {
    "id": "ChIJqfOxsHvRDIgRgytTOyIsXNA",
    "name": "The Dispensary Champaign",
    "city": "Champaign",
    "state": "Illinois",
    "address": "1826 Glenn Park Dr, Champaign, IL 61821",
    "location": {
      "lat": 40.119773,
      "lng": -88.2786668
    },
    "url": "https://www.google.com/maps/search/?api=1&query=The%20Dispensary%20Champaign&query_place_id=ChIJqfOxsHvRDIgRgytTOyIsXNA"
  },
  {
    "id": "ChIJUc_c2zEdc4gRRF9E8DiFYOY",
    "name": "RISE Recreational Dispensary Charleston",
    "city": "Charleston",
    "state": "Illinois",
    "address": "909 Lincoln Ave, Charleston, IL 61920",
    "location": {
      "lat": 39.4849405,
      "lng": -88.171938
    },
    "url": "https://www.google.com/maps/search/?api=1&query=RISE%20Recreational%20Dispensary%20Charleston&query_place_id=ChIJUc_c2zEdc4gRRF9E8DiFYOY"
  },
  {
    "id": "ChIJTdtUtfLRDIgRgzEeYB0TPts",
    "name": "Euphoria 2.0",
    "city": "Champaign",
    "state": "Illinois",
    "address": "1710 W Bradley Ave, Champaign, IL 61821",
    "location": {
      "lat": 40.127819,
      "lng": -88.2752573
    },
    "url": "https://www.google.com/maps/search/?api=1&query=Euphoria%202.0&query_place_id=ChIJTdtUtfLRDIgRgzEeYB0TPts"
  },
  {
    "id": "ChIJN8gpmGDXDIgRtsaXgcb_ztY",
    "name": "Black Leaf Canna Club",
    "city": "Champaign",
    "state": "Illinois",
    "address": "519 N Neil St, Champaign, IL 61820",
    "location": {
      "lat": 40.121015,
      "lng": -88.2440231
    },
    "url": "https://www.google.com/maps/search/?api=1&query=Black%20Leaf%20Canna%20Club&query_place_id=ChIJN8gpmGDXDIgRtsaXgcb_ztY"
  },
  {
    "id": "ChIJjzMMhsHXDIgRc12MLztXOXk",
    "name": "Euphoria",
    "city": "Urbana",
    "state": "Illinois",
    "address": "1403 E Washington St # H, Urbana, IL 61802",
    "location": {
      "lat": 40.1053245,
      "lng": -88.1916439
    },
    "url": "https://www.google.com/maps/search/?api=1&query=Euphoria&query_place_id=ChIJjzMMhsHXDIgRc12MLztXOXk"
  },
  {
    "id": "ChIJL0-_YWQRc4gR3vBUyLw0mjs",
    "name": "BLOC Dispensary - Mattoon - Coming Soon",
    "city": "Mattoon",
    "state": "Illinois",
    "address": "511 Lake Land Blvd, Mattoon, IL 61938",
    "location": {
      "lat": 39.4777374,
      "lng": -88.3772112
    },
    "url": "https://www.google.com/maps/search/?api=1&query=BLOC%20Dispensary%20-%20Mattoon%20-%20Coming%20Soon&query_place_id=ChIJL0-_YWQRc4gR3vBUyLw0mjs"
  },
  {
    "id": "ChIJV6VT-oCDdIgRUng9kfFpY5Y",
    "name": "Medical Cannabis Outreach",
    "city": "Shelbyville",
    "state": "Illinois",
    "address": "480 S Heinlein Dr, Shelbyville, IL 62565",
    "location": {
      "lat": 39.4019268,
      "lng": -88.816727
    },
    "url": "https://www.google.com/maps/search/?api=1&query=Medical%20Cannabis%20Outreach&query_place_id=ChIJV6VT-oCDdIgRUng9kfFpY5Y"
  },
  {
    "id": "ChIJQyygAFTXDIgRb3yaLwnPBE8",
    "name": "nuEra Champaign Dispensary",
    "city": "Champaign",
    "state": "Illinois",
    "address": "102 E Green St, Champaign, IL 61820",
    "location": {
      "lat": 40.1104381,
      "lng": -88.2384162
    },
    "url": "https://www.google.com/maps/search/?api=1&query=nuEra%20Champaign%20Dispensary&query_place_id=ChIJQyygAFTXDIgRb3yaLwnPBE8"
  },
  {
    "id": "ChIJjzk6d8P3cogRRagVFJH-07k",
    "name": "Thrive Dispensary Casey",
    "city": "Casey",
    "state": "Illinois",
    "address": "912 IL-49, Casey, IL 62420",
    "location": {
      "lat": 39.3100471,
      "lng": -87.9876975
    },
    "url": "https://www.google.com/maps/search/?api=1&query=Thrive%20Dispensary%20Casey&query_place_id=ChIJjzk6d8P3cogRRagVFJH-07k"
  },
  {
    "id": "ChIJ-SBVNCC3dIgROqfI9jYrBek",
    "name": "Mystic Greenz",
    "city": "Decatur",
    "state": "Illinois",
    "address": "5045 Indus Dr, Decatur, IL 62522",
    "location": {
      "lat": 39.8453248,
      "lng": -89.0398206
    },
    "url": "https://www.google.com/maps/search/?api=1&query=Mystic%20Greenz&query_place_id=ChIJ-SBVNCC3dIgROqfI9jYrBek"
  },
  {
    "id": "ChIJ63urBgCzdIgRWU8Z4tJXUsI",
    "name": "Bud and Rita's - Forsyth",
    "city": "Forsyth",
    "state": "Illinois",
    "address": "1401 Hickory Point Dr, Forsyth, IL 62535",
    "location": {
      "lat": 39.9164901,
      "lng": -88.9571689
    },
    "url": "https://www.google.com/maps/search/?api=1&query=Bud%20and%20Rita's%20-%20Forsyth&query_place_id=ChIJ63urBgCzdIgRWU8Z4tJXUsI"
  },
  {
    "id": "ChIJr0kotjJFC4gRmmdqtESm6_c",
    "name": "CIL ALTERNATIVES",
    "city": "Clinton",
    "state": "Illinois",
    "address": "200 E Washington St, Clinton, IL 61727",
    "location": {
      "lat": 40.1534852,
      "lng": -88.9591449
    },
    "url": "https://www.google.com/maps/search/?api=1&query=CIL%20ALTERNATIVES&query_place_id=ChIJr0kotjJFC4gRmmdqtESm6_c"
  },
  {
    "id": "ChIJi6nFRDdFC4gRfPmDgsJFu24",
    "name": "Cough It Up Co",
    "city": "Clinton",
    "state": "Illinois",
    "address": "603 West Side Square, Clinton, IL 61727",
    "location": {
      "lat": 40.1529994,
      "lng": -88.9611855
    },
    "url": "https://www.google.com/maps/search/?api=1&query=Cough%20It%20Up%20Co&query_place_id=ChIJi6nFRDdFC4gRfPmDgsJFu24"
  },
  {
    "id": "ChIJeZF491SXc4gRHqCYeAltWgE",
    "name": "RISE Recreational Dispensary Effingham",
    "city": "Effingham",
    "state": "Illinois",
    "address": "1011 Ford Ave Suite C, Effingham, IL 62401",
    "location": {
      "lat": 39.1413855,
      "lng": -88.5548828
    },
    "url": "https://www.google.com/maps/search/?api=1&query=RISE%20Recreational%20Dispensary%20Effingham&query_place_id=ChIJeZF491SXc4gRHqCYeAltWgE"
  },
  {
    "id": "ChIJo9q_DiLx4IcRZpCe-yoGxks",
    "name": "Windy City Cannabis",
    "city": "Macomb",
    "state": "Illinois",
    "address": "518 W Jackson St, Macomb, IL 61455",
    "location": {
      "lat": 40.4592341,
      "lng": -90.6790466
    },
    "url": "https://www.google.com/maps/search/?api=1&query=Windy%20City%20Cannabis&query_place_id=ChIJo9q_DiLx4IcRZpCe-yoGxks"
  },
  {
    "id": "ChIJX8rRqgq_4YcRd29-_m2Lvbg",
    "name": "The Dispensary on Main",
    "city": "Galesburg",
    "state": "Illinois",
    "address": "235 E Main St, Galesburg, IL 61401",
    "location": {
      "lat": 40.9477218,
      "lng": -90.3670216
    },
    "url": "https://www.google.com/maps/search/?api=1&query=The%20Dispensary%20on%20Main&query_place_id=ChIJX8rRqgq_4YcRd29-_m2Lvbg"
  },
  {
    "id": "ChIJ28TeNbEsDogR28Hq1kkHU_Y",
    "name": "RISE Medical & Recreational Dispensary Canton",
    "city": "Canton",
    "state": "Illinois",
    "address": "3104 N Main St, Canton, IL 61520",
    "location": {
      "lat": 40.6000918,
      "lng": -90.0341499
    },
    "url": "https://www.google.com/maps/search/?api=1&query=RISE%20Medical%20%26%20Recreational%20Dispensary%20Canton&query_place_id=ChIJ28TeNbEsDogR28Hq1kkHU_Y"
  },
  {
    "id": "ChIJJ1b8uuO94YcRYhYnvzXmI-8",
    "name": "Nature's Treatment Galesburg",
    "city": "Galesburg",
    "state": "Illinois",
    "address": "735 W Main St, Galesburg, IL 61401",
    "location": {
      "lat": 40.9483504,
      "lng": -90.3824897
    },
    "url": "https://www.google.com/maps/search/?api=1&query=Nature's%20Treatment%20Galesburg&query_place_id=ChIJJ1b8uuO94YcRYhYnvzXmI-8"
  },
  {
    "id": "ChIJidqJbOtb4IcR7eT-fSh4WQc",
    "name": "Ceilidh's Cannabis Conjurations",
    "city": "Adair",
    "state": "Illinois",
    "address": "22200 N 1050th Rd, Adair, IL 61411",
    "location": {
      "lat": 40.4315515,
      "lng": -90.4818872
    },
    "url": "https://www.google.com/maps/search/?api=1&query=Ceilidh's%20Cannabis%20Conjurations&query_place_id=ChIJidqJbOtb4IcR7eT-fSh4WQc"
  },
  {
    "id": "ChIJU4JjC_hdCogRsa7xVBhntqE",
    "name": "Ivy Hall Dispensary - Peoria",
    "city": "Peoria",
    "state": "Illinois",
    "address": "3929 W War Memorial Dr, Peoria, IL 61615",
    "location": {
      "lat": 40.7714503,
      "lng": -89.6549789
    },
    "url": "https://www.google.com/maps/search/?api=1&query=Ivy%20Hall%20Dispensary%20-%20Peoria&query_place_id=ChIJU4JjC_hdCogRsa7xVBhntqE"
  },
  {
    "id": "ChIJa2gbHYFdCogRecL8pj_22uE",
    "name": "Beyond Hello - Cannabis Dispensary",
    "city": "Peoria",
    "state": "Illinois",
    "address": "7620 IL-91 Suite A, Peoria, IL 61615",
    "location": {
      "lat": 40.7814473,
      "lng": -89.667992
    },
    "url": "https://www.google.com/maps/search/?api=1&query=Beyond%20Hello%20-%20Cannabis%20Dispensary&query_place_id=ChIJa2gbHYFdCogRecL8pj_22uE"
  },
  {
    "id": "ChIJO33gRwBbCogRAK3XNFTfTzU",
    "name": "Aroma Hill Dispensary - Peoria",
    "city": "Peoria",
    "state": "Illinois",
    "address": "1204 W Glen Ave, Peoria, IL 61614",
    "location": {
      "lat": 40.746708,
      "lng": -89.6110628
    },
    "url": "https://www.google.com/maps/search/?api=1&query=Aroma%20Hill%20Dispensary%20-%20Peoria&query_place_id=ChIJO33gRwBbCogRAK3XNFTfTzU"
  },
  {
    "id": "ChIJ49wjiFtZCogRO4KRQ9cCsCk",
    "name": "Cloud9 Cannabis",
    "city": "East Peoria",
    "state": "Illinois",
    "address": "406 W Camp St, East Peoria, IL 61611",
    "location": {
      "lat": 40.6729621,
      "lng": -89.5809095
    },
    "url": "https://www.google.com/maps/search/?api=1&query=Cloud9%20Cannabis&query_place_id=ChIJ49wjiFtZCogRO4KRQ9cCsCk"
  },
  {
    "id": "ChIJ52n3Q0dZCogR5T7-eaRQiG4",
    "name": "NOXX Cannabis E. Peoria",
    "city": "East Peoria",
    "state": "Illinois",
    "address": "300 S Main St, East Peoria, IL 61611",
    "location": {
      "lat": 40.6649575,
      "lng": -89.5827757
    },
    "url": "https://www.google.com/maps/search/?api=1&query=NOXX%20Cannabis%20E.%20Peoria&query_place_id=ChIJ52n3Q0dZCogR5T7-eaRQiG4"
  },
  {
    "id": "ChIJXeoMjMJdCogRHIxAkxqJ88I",
    "name": "Trinity Peoria - Glen",
    "city": "Peoria",
    "state": "Illinois",
    "address": "2301 W Glen Ave, Peoria, IL 61614",
    "location": {
      "lat": 40.747551,
      "lng": -89.6300711
    },
    "url": "https://www.google.com/maps/search/?api=1&query=Trinity%20Peoria%20-%20Glen&query_place_id=ChIJXeoMjMJdCogRHIxAkxqJ88I"
  },
  {
    "id": "ChIJLeVgX2fxCogRtpavEVoqje4",
    "name": "nuEra Pekin Dispensary",
    "city": "Pekin",
    "state": "Illinois",
    "address": "3249 Court St, Pekin, IL 61554",
    "location": {
      "lat": 40.5475728,
      "lng": -89.6029309
    },
    "url": "https://www.google.com/maps/search/?api=1&query=nuEra%20Pekin%20Dispensary&query_place_id=ChIJLeVgX2fxCogRtpavEVoqje4"
  },
  {
    "id": "ChIJbaQNx65ZCogRE4e9cgXaG64",
    "name": "nuEra East Peoria Dispensary",
    "city": "East Peoria",
    "state": "Illinois",
    "address": "504 Riverside Dr, East Peoria, IL 61611",
    "location": {
      "lat": 40.6809635,
      "lng": -89.5820017
    },
    "url": "https://www.google.com/maps/search/?api=1&query=nuEra%20East%20Peoria%20Dispensary&query_place_id=ChIJbaQNx65ZCogRE4e9cgXaG64"
  },
  {
    "id": "ChIJoQQoZypxC4gRXQYvk-3kaWE",
    "name": "Revolution Dispensary - Normal",
    "city": "Normal",
    "state": "Illinois",
    "address": "1609 Northbrook Dr #3, Normal, IL 61761",
    "location": {
      "lat": 40.5314316,
      "lng": -88.9993715
    },
    "url": "https://www.google.com/maps/search/?api=1&query=Revolution%20Dispensary%20-%20Normal&query_place_id=ChIJoQQoZypxC4gRXQYvk-3kaWE"
  },
  {
    "id": "ChIJgXRtz9MnC4gRMZSJU3VPU90",
    "name": "Mystic Greenz",
    "city": "Lincoln",
    "state": "Illinois",
    "address": "1120 Woodlawn Rd, Lincoln, IL 62656",
    "location": {
      "lat": 40.1581053,
      "lng": -89.3893161
    },
    "url": "https://www.google.com/maps/search/?api=1&query=Mystic%20Greenz&query_place_id=ChIJgXRtz9MnC4gRMZSJU3VPU90"
  },
  {
    "id": "ChIJWyeece9bCogRESPyAsKqVLU",
    "name": "Trinity Cannabis",
    "city": "Peoria",
    "state": "Illinois",
    "address": "3125 N University St B, Peoria, IL 61604",
    "location": {
      "lat": 40.7258985,
      "lng": -89.6137243
    },
    "url": "https://www.google.com/maps/search/?api=1&query=Trinity%20Cannabis&query_place_id=ChIJWyeece9bCogRESPyAsKqVLU"
  },
  {
    "id": "ChIJbdMDjy3r34cRQQn28A3MXVY",
    "name": "Kush21 Jacksonville",
    "city": "Jacksonville",
    "state": "Illinois",
    "address": "1112 Veterans Dr, Jacksonville, IL 62650",
    "location": {
      "lat": 39.7215347,
      "lng": -90.2439498
    },
    "url": "https://www.google.com/maps/search/?api=1&query=Kush21%20Jacksonville&query_place_id=ChIJbdMDjy3r34cRQQn28A3MXVY"
  },
  {
    "id": "ChIJt3AnOVT33YcR01Lm460Z7Sw",
    "name": "RISE Recreational Dispensary Quincy",
    "city": "Quincy",
    "state": "Illinois",
    "address": "2703 Broadway St, Quincy, IL 62301",
    "location": {
      "lat": 39.9356265,
      "lng": -91.371772
    },
    "url": "https://www.google.com/maps/search/?api=1&query=RISE%20Recreational%20Dispensary%20Quincy&query_place_id=ChIJt3AnOVT33YcR01Lm460Z7Sw"
  },
  {
    "id": "ChIJKWoWClhxC4gRQjfisWrkHaY",
    "name": "Beyond / Hello",
    "city": "Bloomington",
    "state": "Illinois",
    "address": "1515 N Veterans Pkwy, Bloomington, IL 61704",
    "location": {
      "lat": 40.5010665,
      "lng": -88.9522343
    },
    "url": "https://www.google.com/maps/search/?api=1&query=Beyond%20%2F%20Hello&query_place_id=ChIJKWoWClhxC4gRQjfisWrkHaY"
  },
  {
    "id": "ChIJwcW40f9bCogRo-LGNrCoS0Q",
    "name": "Cookies Dispensary Peoria Heights",
    "city": "Peoria Heights",
    "state": "Illinois",
    "address": "1209 E War Memorial Dr, Peoria Heights, IL 61616",
    "location": {
      "lat": 40.7321824,
      "lng": -89.5762417
    },
    "url": "https://www.google.com/maps/search/?api=1&query=Cookies%20Dispensary%20Peoria%20Heights&query_place_id=ChIJwcW40f9bCogRo-LGNrCoS0Q"
  },
  {
    "id": "ChIJkVjW08D1CogRciSfbnStsZg",
    "name": "Medical Cannabis Outreach",
    "city": "Pekin",
    "state": "Illinois",
    "address": "530 Margaret St, Pekin, IL 61554",
    "location": {
      "lat": 40.5687276,
      "lng": -89.6437168
    },
    "url": "https://www.google.com/maps/search/?api=1&query=Medical%20Cannabis%20Outreach&query_place_id=ChIJkVjW08D1CogRciSfbnStsZg"
  },
  {
    "id": "ChIJvZI_1kRZCogRQAZ9GVtUFkg",
    "name": "Hemisphere Naturals",
    "city": "East Peoria",
    "state": "Illinois",
    "address": "215 E Washington St, East Peoria, IL 61611",
    "location": {
      "lat": 40.6646403,
      "lng": -89.5772196
    },
    "url": "https://www.google.com/maps/search/?api=1&query=Hemisphere%20Naturals&query_place_id=ChIJvZI_1kRZCogRQAZ9GVtUFkg"
  },
  {
    "id": "ChIJP446LCrvcYgRLiKLYWy852Y",
    "name": "Nirvana - Mount Carmel",
    "city": "Mt Carmel",
    "state": "Illinois",
    "address": "825 N Chestnut St, Mt Carmel, IL 62863",
    "location": {
      "lat": 38.41492,
      "lng": -87.7657264
    },
    "url": "https://www.google.com/maps/search/?api=1&query=Nirvana%20-%20Mount%20Carmel&query_place_id=ChIJP446LCrvcYgRLiKLYWy852Y"
  },
  {
    "id": "ChIJYfiwxlG9cYgR-0eDoWxrMYs",
    "name": "Terrabis Dispensary Grayville",
    "city": "Grayville",
    "state": "Illinois",
    "address": "105 Koehler St, Grayville, IL 62844",
    "location": {
      "lat": 38.2431749,
      "lng": -87.9978141
    },
    "url": "https://www.google.com/maps/search/?api=1&query=Terrabis%20Dispensary%20Grayville&query_place_id=ChIJYfiwxlG9cYgR-0eDoWxrMYs"
  },
  {
    "id": "ChIJg1mUBAipcYgRSf34-oH1p70",
    "name": "Illuminent",
    "city": "Carmi",
    "state": "Illinois",
    "address": "112 N Church St, Carmi, IL 62821",
    "location": {
      "lat": 38.0899273,
      "lng": -88.1613705
    },
    "url": "https://www.google.com/maps/search/?api=1&query=Illuminent&query_place_id=ChIJg1mUBAipcYgRSf34-oH1p70"
  },
  {
    "id": "ChIJ7yo81969cYgRu7hKLB2NYWQ",
    "name": "Smoking Bong Head Shop",
    "city": "Grayville",
    "state": "Illinois",
    "address": "102 E North St, Grayville, IL 62844",
    "location": {
      "lat": 38.2579656,
      "lng": -87.9960706
    },
    "url": "https://www.google.com/maps/search/?api=1&query=Smoking%20Bong%20Head%20Shop&query_place_id=ChIJ7yo81969cYgRu7hKLB2NYWQ"
  },
  {
    "id": "ChIJb9QxFpLucYgR309JV7qV9Hw",
    "name": "Juice Bar",
    "city": "Mt Carmel",
    "state": "Illinois",
    "address": "409 N Market St, Mt Carmel, IL 62863",
    "location": {
      "lat": 38.4100532,
      "lng": -87.7609863
    },
    "url": "https://www.google.com/maps/search/?api=1&query=Juice%20Bar&query_place_id=ChIJb9QxFpLucYgR309JV7qV9Hw"
  },
  {
    "id": "ChIJl4PiJpLucYgR3X6j1svG3jY",
    "name": "Berries & Blooms",
    "city": "Mt Carmel",
    "state": "Illinois",
    "address": "115 W 4th St, Mt Carmel, IL 62863",
    "location": {
      "lat": 38.4093191,
      "lng": -87.7611188
    },
    "url": "https://www.google.com/maps/search/?api=1&query=Berries%20%26%20Blooms&query_place_id=ChIJl4PiJpLucYgR3X6j1svG3jY"
  },
  {
    "id": "ChIJUVsyzXsHcYgRODCA_O4i3R4",
    "name": "Jungle Vapor Lounge",
    "city": "Carmi",
    "state": "Illinois",
    "address": "1001 Oak St, Carmi, IL 62821",
    "location": {
      "lat": 38.0849148,
      "lng": -88.1756636
    },
    "url": "https://www.google.com/maps/search/?api=1&query=Jungle%20Vapor%20Lounge&query_place_id=ChIJUVsyzXsHcYgRODCA_O4i3R4"
  },
  {
    "id": "ChIJqR-uMGj3cIgRHZnDOOlTGjY",
    "name": "The Medicine Shoppe-Shawneetown",
    "city": "Shawneetown",
    "state": "Illinois",
    "address": "254 Lincoln Blvd E, Shawneetown, IL 62984",
    "location": {
      "lat": 37.714921,
      "lng": -88.186429
    },
    "url": "https://www.google.com/maps/search/?api=1&query=The%20Medicine%20Shoppe-Shawneetown&query_place_id=ChIJqR-uMGj3cIgRHZnDOOlTGjY"
  },
  {
    "id": "ChIJIR5ucAn6cIgRyDoCBIDhXts",
    "name": "The Medicine Shoppe Pharmacy",
    "city": "Ridgway",
    "state": "Illinois",
    "address": "101 E Main St, Ridgway, IL 62979",
    "location": {
      "lat": 37.7993674,
      "lng": -88.2609797
    },
    "url": "https://www.google.com/maps/search/?api=1&query=The%20Medicine%20Shoppe%20Pharmacy&query_place_id=ChIJIR5ucAn6cIgRyDoCBIDhXts"
  },
  {
    "id": "ChIJEVRHy47ucYgRYqidg24_KMU",
    "name": "Jumpin Jimmy's",
    "city": "Mt Carmel",
    "state": "Illinois",
    "address": "902 N Mulberry St, Mt Carmel, IL 62863",
    "location": {
      "lat": 38.416342,
      "lng": -87.7634454
    },
    "url": "https://www.google.com/maps/search/?api=1&query=Jumpin%20Jimmy's&query_place_id=ChIJEVRHy47ucYgRYqidg24_KMU"
  },
  {
    "id": "ChIJb4uHuBP33YcRqsZT5Sfzy6c",
    "name": "Bloom Wellness Dispensary - Quincy West - Adult Use",
    "city": "Quincy",
    "state": "Illinois",
    "address": "1837 Broadway St, Quincy, IL 62301",
    "location": {
      "lat": 39.9358609,
      "lng": -91.3855349
    },
    "url": "https://www.google.com/maps/search/?api=1&query=Bloom%20Wellness%20Dispensary%20-%20Quincy%20West%20-%20Adult%20Use&query_place_id=ChIJb4uHuBP33YcRqsZT5Sfzy6c"
  },
  {
    "id": "ChIJT9M9VUr43YcR4Hqi7m-NCG8",
    "name": "Bloom Wellness Dispensary - Quincy East - Adult and Medical Use",
    "city": "Quincy",
    "state": "Illinois",
    "address": "4440 Broadway St, Quincy, IL 62305",
    "location": {
      "lat": 39.934501,
      "lng": -91.3444852
    },
    "url": "https://www.google.com/maps/search/?api=1&query=Bloom%20Wellness%20Dispensary%20-%20Quincy%20East%20-%20Adult%20and%20Medical%20Use&query_place_id=ChIJT9M9VUr43YcR4Hqi7m-NCG8"
  },
  {
    "id": "ChIJkfxes4j53YcRXrYaUk5PPs4",
    "name": "SUNMED Modern Wellness - Quincy, IL",
    "city": "Quincy",
    "state": "Illinois",
    "address": "608 Broadway St, Quincy, IL 62301",
    "location": {
      "lat": 39.9354083,
      "lng": -91.4065413
    },
    "url": "https://www.google.com/maps/search/?api=1&query=SUNMED%20Modern%20Wellness%20-%20Quincy%2C%20IL&query_place_id=ChIJkfxes4j53YcRXrYaUk5PPs4"
  },
  {
    "id": "ChIJ2YDFTID53YcRgbQ232gjxaQ",
    "name": "High five smoke shop",
    "city": "Quincy",
    "state": "Illinois",
    "address": "5205 Broadway St unit 1, Quincy, IL 62305",
    "location": {
      "lat": 39.935929,
      "lng": -91.3333281
    },
    "url": "https://www.google.com/maps/search/?api=1&query=High%20five%20smoke%20shop&query_place_id=ChIJ2YDFTID53YcRgbQ232gjxaQ"
  },
  {
    "id": "ChIJcfb-bKj33YcR9T-W78fm6Kw",
    "name": "River Roots Smoke Shop",
    "city": "Quincy",
    "state": "Illinois",
    "address": "703 Maine St, Quincy, IL 62301",
    "location": {
      "lat": 39.9320254,
      "lng": -91.404424
    },
    "url": "https://www.google.com/maps/search/?api=1&query=River%20Roots%20Smoke%20Shop&query_place_id=ChIJcfb-bKj33YcR9T-W78fm6Kw"
  },
  {
    "id": "ChIJB2S-pqb4YEwRqumlxEOmVbQ",
    "name": "Great River Mushrooms & Herbal",
    "city": "Quincy",
    "state": "Illinois",
    "address": "1310 N 8th St, Quincy, IL 62301",
    "location": {
      "lat": 39.9473185,
      "lng": -91.4030804
    },
    "url": "https://www.google.com/maps/search/?api=1&query=Great%20River%20Mushrooms%20%26%20Herbal&query_place_id=ChIJB2S-pqb4YEwRqumlxEOmVbQ"
  },
  {
    "id": "ChIJgV9187D33YcRL6-3xScEhec",
    "name": "Smoke Times",
    "city": "Quincy",
    "state": "Illinois",
    "address": "610 Broadway St, Quincy, IL 62301",
    "location": {
      "lat": 39.9354742,
      "lng": -91.4064976
    },
    "url": "https://www.google.com/maps/search/?api=1&query=Smoke%20Times&query_place_id=ChIJgV9187D33YcRL6-3xScEhec"
  },
  {
    "id": "ChIJO0a5VDBH3ocRKLJS_fdeO6s",
    "name": "Vape shop",
    "city": "Pittsfield",
    "state": "Illinois",
    "address": "W Washington St, Pittsfield, IL 62363",
    "location": {
      "lat": 39.6043202,
      "lng": -90.8254104
    },
    "url": "https://www.google.com/maps/search/?api=1&query=Vape%20shop&query_place_id=ChIJO0a5VDBH3ocRKLJS_fdeO6s"
  },
  {
    "id": "ChIJ58_eQpBH3ocROuKbpIE_o2o",
    "name": "SMOKE SIGNALS",
    "city": "Pittsfield",
    "state": "Illinois",
    "address": "1083 W Washington St, Pittsfield, IL 62363",
    "location": {
      "lat": 39.6042438,
      "lng": -90.8255686
    },
    "url": "https://www.google.com/maps/search/?api=1&query=SMOKE%20SIGNALS&query_place_id=ChIJ58_eQpBH3ocROuKbpIE_o2o"
  },
  {
    "id": "ChIJ9XQJ53JF34cR66RmvwLViF8",
    "name": "Terrace Cannabis Dispensary - Alton",
    "city": "Alton",
    "state": "Illinois",
    "address": "1400 E Broadway, Alton, IL 62002",
    "location": {
      "lat": 38.8879945,
      "lng": -90.1647321
    },
    "url": "https://www.google.com/maps/search/?api=1&query=Terrace%20Cannabis%20Dispensary%20-%20Alton&query_place_id=ChIJ9XQJ53JF34cR66RmvwLViF8"
  },
  {
    "id": "ChIJ_8H-Cnc5dYgRA34gXIpBmFE",
    "name": "Share Cannabis Dispensary Springfield",
    "city": "Springfield",
    "state": "Illinois",
    "address": "3600 S 6th St, Springfield, IL 62703",
    "location": {
      "lat": 39.751363,
      "lng": -89.6441767
    },
    "url": "https://www.google.com/maps/search/?api=1&query=Share%20Cannabis%20Dispensary%20Springfield&query_place_id=ChIJ_8H-Cnc5dYgRA34gXIpBmFE"
  },
  {
    "id": "ChIJ3wN8gJT33YcRoznVzoLx5Ps",
    "name": "The Kb Co.",
    "city": "Quincy",
    "state": "Illinois",
    "address": "611 Maine St, Quincy, IL 62301",
    "location": {
      "lat": 39.9321197,
      "lng": -91.4063904
    },
    "url": "https://www.google.com/maps/search/?api=1&query=The%20Kb%20Co.&query_place_id=ChIJ3wN8gJT33YcRoznVzoLx5Ps"
  },
  {
    "id": "ChIJbbCbEzql34cRGUQo_JKzG2U",
    "name": "The Stoner Supply Co.",
    "city": "White Hall",
    "state": "Illinois",
    "address": "505 State St, White Hall, IL 62092",
    "location": {
      "lat": 39.4420446,
      "lng": -90.3918139
    },
    "url": "https://www.google.com/maps/search/?api=1&query=The%20Stoner%20Supply%20Co.&query_place_id=ChIJbbCbEzql34cRGUQo_JKzG2U"
  },
  {
    "id": "ChIJkYgb-XUT3ocRcDNM0Ztm8Ns",
    "name": "Ascend Plant",
    "city": "Barry",
    "state": "Illinois",
    "address": "1 310th Ave, Barry, IL 62312",
    "location": {
      "lat": 39.7129195,
      "lng": -91.0443545
    },
    "url": "https://www.google.com/maps/search/?api=1&query=Ascend%20Plant&query_place_id=ChIJkYgb-XUT3ocRcDNM0Ztm8Ns"
  },
  {
    "id": "ChIJARJUZABtcogRBP7OdFPRI-Y",
    "name": "The Joint Smoke Shop",
    "city": "Robinson",
    "state": "Illinois",
    "address": "1201 W Main St, Robinson, IL 62454",
    "location": {
      "lat": 39.0055013,
      "lng": -87.7519446
    },
    "url": "https://www.google.com/maps/search/?api=1&query=The%20Joint%20Smoke%20Shop&query_place_id=ChIJARJUZABtcogRBP7OdFPRI-Y"
  },
  {
    "id": "ChIJkfoYVkMBcogReqd4qtGSJ6g",
    "name": "Smoke n Roll / Frontroom gaming lounge",
    "city": "Lawrenceville",
    "state": "Illinois",
    "address": "20266 IL-33, Lawrenceville, IL 62439",
    "location": {
      "lat": 38.6856563,
      "lng": -87.5401456
    },
    "url": "https://www.google.com/maps/search/?api=1&query=Smoke%20n%20Roll%20%2F%20Frontroom%20gaming%20lounge&query_place_id=ChIJkfoYVkMBcogReqd4qtGSJ6g"
  },
  {
    "id": "ChIJt8073attcogRBejKOHZGxW4",
    "name": "ASH TOBACCO & vape",
    "city": "Robinson",
    "state": "Illinois",
    "address": "1302 E Main St Ste I, Robinson, IL 62454",
    "location": {
      "lat": 39.0065519,
      "lng": -87.7247268
    },
    "url": "https://www.google.com/maps/search/?api=1&query=ASH%20TOBACCO%20%26%20vape&query_place_id=ChIJt8073attcogRBejKOHZGxW4"
  },
  {
    "id": "ChIJQ-CRKf0vcogR_jcTzf7VuxE",
    "name": "Litdragonfly",
    "city": "Olney",
    "state": "Illinois",
    "address": "712 S Fair St, Olney, IL 62450",
    "location": {
      "lat": 38.724747,
      "lng": -88.0832634
    },
    "url": "https://www.google.com/maps/search/?api=1&query=Litdragonfly&query_place_id=ChIJQ-CRKf0vcogR_jcTzf7VuxE"
  },
  {
    "id": "ChIJOecWw3RYcogRnZpgYtyC31o",
    "name": "Casey, IL",
    "city": "Casey",
    "state": "Illinois",
    "address": "110 E Main St, Casey, IL 62420",
    "location": {
      "lat": 39.3000215,
      "lng": -87.9912467
    },
    "url": "https://www.google.com/maps/search/?api=1&query=Casey%2C%20IL&query_place_id=ChIJOecWw3RYcogRnZpgYtyC31o"
  },
  {
    "id": "ChIJc-MSrDkz4ocRnRPRXgDtMR0",
    "name": "Terrace Cannabis Dispensary - Milan",
    "city": "Milan",
    "state": "Illinois",
    "address": "800 Tech Dr, Milan, IL 61264",
    "location": {
      "lat": 41.4448684,
      "lng": -90.5414713
    },
    "url": "https://www.google.com/maps/search/?api=1&query=Terrace%20Cannabis%20Dispensary%20-%20Milan&query_place_id=ChIJc-MSrDkz4ocRnRPRXgDtMR0"
  },
  {
    "id": "ChIJ-ShFu9DP4ocRDMCnH2oovNs",
    "name": "Verilife Dispensary",
    "city": "Galena",
    "state": "Illinois",
    "address": "115 Perry St, Galena, IL 61036",
    "location": {
      "lat": 42.4160529,
      "lng": -90.4268425
    },
    "url": "https://www.google.com/maps/search/?api=1&query=Verilife%20Dispensary&query_place_id=ChIJ-ShFu9DP4ocRDMCnH2oovNs"
  },
  {
    "id": "ChIJG0uIMuYx4ocRkpE5Hg3NIW0",
    "name": "Terrace Cannabis Dispensary - Moline",
    "city": "Moline",
    "state": "Illinois",
    "address": "2727 Avenue of the Cities, Moline, IL 61265",
    "location": {
      "lat": 41.4926273,
      "lng": -90.4979524
    },
    "url": "https://www.google.com/maps/search/?api=1&query=Terrace%20Cannabis%20Dispensary%20-%20Moline&query_place_id=ChIJG0uIMuYx4ocRkpE5Hg3NIW0"
  },
  {
    "id": "ChIJs0t2OnMx4ocRcSLdyqiuTLQ",
    "name": "Revolution Dispensary - Moline",
    "city": "Moline",
    "state": "Illinois",
    "address": "4301 44th Ave, Moline, IL 61265",
    "location": {
      "lat": 41.4697592,
      "lng": -90.4741851
    },
    "url": "https://www.google.com/maps/search/?api=1&query=Revolution%20Dispensary%20-%20Moline&query_place_id=ChIJs0t2OnMx4ocRcSLdyqiuTLQ"
  },
  {
    "id": "ChIJmWM9sosr44cRmCIHdW3Tsx4",
    "name": "The Dispensary East Dubuque",
    "city": "East Dubuque",
    "state": "Illinois",
    "address": "1709 IL-35 N, East Dubuque, IL 61025",
    "location": {
      "lat": 42.5057078,
      "lng": -90.6158713
    },
    "url": "https://www.google.com/maps/search/?api=1&query=The%20Dispensary%20East%20Dubuque&query_place_id=ChIJmWM9sosr44cRmCIHdW3Tsx4"
  },
  {
    "id": "ChIJVT66Ncp84ocR-nEjimO9Jok",
    "name": "The Dispensary Fulton",
    "city": "Fulton",
    "state": "Illinois",
    "address": "1801 16th Ave, Fulton, IL 61252",
    "location": {
      "lat": 41.862335,
      "lng": -90.1466494
    },
    "url": "https://www.google.com/maps/search/?api=1&query=The%20Dispensary%20Fulton&query_place_id=ChIJVT66Ncp84ocR-nEjimO9Jok"
  },
  {
    "id": "ChIJKyXNDQQz4ocRPJt30B5nsNs",
    "name": "ESSENTIALS VAPE | CBD | THC DISPENSARY",
    "city": "Rock Island",
    "state": "Illinois",
    "address": "3015 18th Ave, Rock Island, IL 61201",
    "location": {
      "lat": 41.4937287,
      "lng": -90.5561812
    },
    "url": "https://www.google.com/maps/search/?api=1&query=ESSENTIALS%20VAPE%20%7C%20CBD%20%7C%20THC%20DISPENSARY&query_place_id=ChIJKyXNDQQz4ocRPJt30B5nsNs"
  },
  {
    "id": "ChIJtbRGAAsy4ocRvSfSVIgHTtk",
    "name": "Nature's Treatment of Illinois",
    "city": "Milan",
    "state": "Illinois",
    "address": "973 Tech Dr, Milan, IL 61264",
    "location": {
      "lat": 41.4422711,
      "lng": -90.5427015
    },
    "url": "https://www.google.com/maps/search/?api=1&query=Nature's%20Treatment%20of%20Illinois&query_place_id=ChIJtbRGAAsy4ocRvSfSVIgHTtk"
  },
  {
    "id": "ChIJAwP9bnIx4YcRRkr_xmztmPI",
    "name": "Dustys Extractions, LLC",
    "city": "Carman",
    "state": "Illinois",
    "address": "101 Scholer Ave, Carman, IL 61425",
    "location": {
      "lat": 40.8117584,
      "lng": -91.0810475
    },
    "url": "https://www.google.com/maps/search/?api=1&query=Dusty%E2%80%99s%20Extractions%2C%20LLC&query_place_id=ChIJAwP9bnIx4YcRRkr_xmztmPI"
  },
  {
    "id": "ChIJwUyH-K4x4ocRTo89RItl544",
    "name": "Almost Paradise Vapor",
    "city": "East Moline",
    "state": "Illinois",
    "address": "4113 Kennedy Dr, East Moline, IL 61244",
    "location": {
      "lat": 41.4911294,
      "lng": -90.4566142
    },
    "url": "https://www.google.com/maps/search/?api=1&query=Almost%20Paradise%20Vapor&query_place_id=ChIJwUyH-K4x4ocRTo89RItl544"
  },
  {
    "id": "ChIJL9ZUG_Iw4ocRYM_SHSmuFmM",
    "name": "Yabba Dabbas Vape and Tobacco",
    "city": "Moline",
    "state": "Illinois",
    "address": "4416 Avenue of the Cities, Moline, IL 61265",
    "location": {
      "lat": 41.4896812,
      "lng": -90.473525
    },
    "url": "https://www.google.com/maps/search/?api=1&query=Yabba%20Dabbas%20Vape%20and%20Tobacco&query_place_id=ChIJL9ZUG_Iw4ocRYM_SHSmuFmM"
  },
  {
    "id": "ChIJLbbd12Mx4ocRXXFZyvKMJUI",
    "name": "Lollypalooza",
    "city": "Moline",
    "state": "Illinois",
    "address": "1722 10th St, Moline, IL 61265",
    "location": {
      "lat": 41.4950868,
      "lng": -90.5228627
    },
    "url": "https://www.google.com/maps/search/?api=1&query=Lollypalooza&query_place_id=ChIJLbbd12Mx4ocRXXFZyvKMJUI"
  },
  {
    "id": "ChIJfxTc-OIx4ocRhsjAM_IbwS4",
    "name": "Yabba Dabbas Vape and Tobacco",
    "city": "East Moline",
    "state": "Illinois",
    "address": "209 12th Ave, East Moline, IL 61244",
    "location": {
      "lat": 41.5162855,
      "lng": -90.4570907
    },
    "url": "https://www.google.com/maps/search/?api=1&query=Yabba%20Dabbas%20Vape%20and%20Tobacco&query_place_id=ChIJfxTc-OIx4ocRhsjAM_IbwS4"
  },
  {
    "id": "ChIJs9Ho8YHS44cRPPRifW0x6xg",
    "name": "Green Thumb Industries",
    "city": "Rock Island",
    "state": "Illinois",
    "address": "8221 51st St W, Rock Island, IL 61201",
    "location": {
      "lat": 41.4386233,
      "lng": -90.6351847
    },
    "url": "https://www.google.com/maps/search/?api=1&query=Green%20Thumb%20Industries&query_place_id=ChIJs9Ho8YHS44cRPPRifW0x6xg"
  },
  {
    "id": "ChIJ110pCGY64ocRX7Dbm9FfSXM",
    "name": "Uptown Vapors",
    "city": "East Moline",
    "state": "Illinois",
    "address": "1128 Avenue of the Cities, East Moline, IL 61244",
    "location": {
      "lat": 41.4887769,
      "lng": -90.4357565
    },
    "url": "https://www.google.com/maps/search/?api=1&query=Uptown%20Vapors&query_place_id=ChIJ110pCGY64ocRX7Dbm9FfSXM"
  },
  {
    "id": "ChIJw8G4Otwz4ocRNc_d133xzEA",
    "name": "DISP-MILAN",
    "city": "Milan",
    "state": "Illinois",
    "address": "973 Tech Dr, Milan, IL 61264",
    "location": {
      "lat": 41.4422832,
      "lng": -90.5425545
    },
    "url": "https://www.google.com/maps/search/?api=1&query=DISP-MILAN&query_place_id=ChIJw8G4Otwz4ocRNc_d133xzEA"
  },
  {
    "id": "ChIJFXCO5Es74ocR0xPk6sW7L34",
    "name": "pHat Bottom Labs",
    "city": "East Moline",
    "state": "Illinois",
    "address": "824 15th Ave, East Moline, IL 61244",
    "location": {
      "lat": 41.5159289,
      "lng": -90.4418295
    },
    "url": "https://www.google.com/maps/search/?api=1&query=pHat%20Bottom%20Labs&query_place_id=ChIJFXCO5Es74ocR0xPk6sW7L34"
  },
  {
    "id": "ChIJ337j484x4ocR1om5cgzVg4g",
    "name": "CBD On The Avenue",
    "city": "Moline",
    "state": "Illinois",
    "address": "3407 Avenue of the Cities, Moline, IL 61265",
    "location": {
      "lat": 41.4918638,
      "lng": -90.4885479
    },
    "url": "https://www.google.com/maps/search/?api=1&query=CBD%20On%20The%20Avenue&query_place_id=ChIJ337j484x4ocR1om5cgzVg4g"
  },
  {
    "id": "ChIJIciS6Yw04ocR0BY76zt9bXY",
    "name": "ODC",
    "city": "Moline",
    "state": "Illinois",
    "address": "1200 5th Ave, Moline, IL 61265",
    "location": {
      "lat": 41.5046642,
      "lng": -90.5197525
    },
    "url": "https://www.google.com/maps/search/?api=1&query=ODC&query_place_id=ChIJIciS6Yw04ocR0BY76zt9bXY"
  },
  {
    "id": "ChIJAfKAKB0x4ocR7cuOdoVMHgs",
    "name": "Kush Kafe",
    "city": "Moline",
    "state": "Illinois",
    "address": "3122 Avenue of the Cities, Moline, IL 61265",
    "location": {
      "lat": 41.4918039,
      "lng": -90.4934162
    },
    "url": "https://www.google.com/maps/search/?api=1&query=Kush%20Kafe&query_place_id=ChIJAfKAKB0x4ocR7cuOdoVMHgs"
  },
  {
    "id": "ChIJk5YCKQEz4ocRtP6iE6Rp8fk",
    "name": "Medical Cannabis Consulting Inc.",
    "city": "Rock Island",
    "state": "Illinois",
    "address": "2508 25th St STE B, Rock Island, IL 61201",
    "location": {
      "lat": 41.4844365,
      "lng": -90.5661672
    },
    "url": "https://www.google.com/maps/search/?api=1&query=Medical%20Cannabis%20Consulting%20Inc.&query_place_id=ChIJk5YCKQEz4ocRtP6iE6Rp8fk"
  },
  {
    "id": "ChIJG9exdfox4ocRVfDlwI7xpiE",
    "name": "Harmony CBD Oil & Wellness",
    "city": "Moline",
    "state": "Illinois",
    "address": "4323 Avenue of the Cities, Moline, IL 61265",
    "location": {
      "lat": 41.490162,
      "lng": -90.4745203
    },
    "url": "https://www.google.com/maps/search/?api=1&query=Harmony%20CBD%20Oil%20%26%20Wellness&query_place_id=ChIJG9exdfox4ocRVfDlwI7xpiE"
  },
  {
    "id": "ChIJF6jxmEEx4ocR6Lz-k7bfhb4",
    "name": "ESSENTIALS VAPE | THC | LIQUOR | BEER & WINE",
    "city": "Moline",
    "state": "Illinois",
    "address": "4301 Avenue of the Cities, Moline, IL 61265",
    "location": {
      "lat": 41.490263,
      "lng": -90.4749724
    },
    "url": "https://www.google.com/maps/search/?api=1&query=ESSENTIALS%20VAPE%20%7C%20THC%20%7C%20LIQUOR%20%7C%20BEER%20%26%20WINE&query_place_id=ChIJF6jxmEEx4ocR6Lz-k7bfhb4"
  },
  {
    "id": "ChIJpf4IoqMz4ocR0Hpr3Pxd3eU",
    "name": "Quad Cities Gardening Equipment and Supply",
    "city": "Rock Island",
    "state": "Illinois",
    "address": "4661 44th St, Rock Island, IL 61201",
    "location": {
      "lat": 41.4674462,
      "lng": -90.5408376
    },
    "url": "https://www.google.com/maps/search/?api=1&query=Quad%20Cities%20Gardening%20Equipment%20and%20Supply&query_place_id=ChIJpf4IoqMz4ocR0Hpr3Pxd3eU"
  },
  {
    "id": "ChIJF-Zz_6Iz4ocRHegR_NJ5px8",
    "name": "The Vaporosity Shop",
    "city": "Rock Island",
    "state": "Illinois",
    "address": "3009 14th Ave, Rock Island, IL 61201",
    "location": {
      "lat": 41.4977131,
      "lng": -90.556788
    },
    "url": "https://www.google.com/maps/search/?api=1&query=The%20Vaporosity%20Shop&query_place_id=ChIJF-Zz_6Iz4ocRHegR_NJ5px8"
  },
  {
    "id": "ChIJw2gzpusz4ocRZ_VPmDiAYRI",
    "name": "Blackhawks Tobacco & Vape",
    "city": "Rock Island",
    "state": "Illinois",
    "address": "2733 18th Ave, Rock Island, IL 61201",
    "location": {
      "lat": 41.4936119,
      "lng": -90.5612219
    },
    "url": "https://www.google.com/maps/search/?api=1&query=Blackhawks%20Tobacco%20%26%20Vape&query_place_id=ChIJw2gzpusz4ocRZ_VPmDiAYRI"
  },
  {
    "id": "ChIJeTjaWxAx4ocRFG_OTMVDvJs",
    "name": "bp",
    "city": "Moline",
    "state": "Illinois",
    "address": "2702 27th St, Moline, IL 61265",
    "location": {
      "lat": 41.4919929,
      "lng": -90.4986893
    },
    "url": "https://www.google.com/maps/search/?api=1&query=bp&query_place_id=ChIJeTjaWxAx4ocRFG_OTMVDvJs"
  },
  {
    "id": "ChIJU7ifm3oz4ocRkaWozbWIykc",
    "name": "Illinois Casualty Company",
    "city": "Rock Island",
    "state": "Illinois",
    "address": "225 20th St, Rock Island, IL 61201",
    "location": {
      "lat": 41.5101966,
      "lng": -90.5714569
    },
    "url": "https://www.google.com/maps/search/?api=1&query=Illinois%20Casualty%20Company&query_place_id=ChIJU7ifm3oz4ocRkaWozbWIykc"
  },
  {
    "id": "ChIJefgdfCIz4ocRn4EwxGAbH4M",
    "name": "Tammy Beauty Supplies",
    "city": "Rock Island",
    "state": "Illinois",
    "address": "2369 11th St, Rock Island, IL 61201",
    "location": {
      "lat": 41.4871034,
      "lng": -90.5818367
    },
    "url": "https://www.google.com/maps/search/?api=1&query=Tammy%20Beauty%20Supplies&query_place_id=ChIJefgdfCIz4ocRn4EwxGAbH4M"
  },
  {
    "id": "ChIJC4HuyFq3CYgRBgLckCcQb2Y",
    "name": "Smokes Lab Dispensing, THC, VAPE & Tobacco",
    "city": "Sterling",
    "state": "Illinois",
    "address": "2323 E Lincolnway unit C, Sterling, IL 61081",
    "location": {
      "lat": 41.8002182,
      "lng": -89.6681304
    },
    "url": "https://www.google.com/maps/search/?api=1&query=Smokes%20Lab%20Dispensing%2C%20THC%2C%20VAPE%20%26%20Tobacco&query_place_id=ChIJC4HuyFq3CYgRBgLckCcQb2Y"
  },
  {
    "id": "ChIJaYoJANIrD4gRG-sCZzYZuSA",
    "name": "EXCELLEAF DISPENSARY OF DEKALB",
    "city": "DeKalb",
    "state": "Illinois",
    "address": "305 E Locust St, DeKalb, IL 60115",
    "location": {
      "lat": 41.93105,
      "lng": -88.7505648
    },
    "url": "https://www.google.com/maps/search/?api=1&query=EXCELLEAF%20DISPENSARY%20OF%20DEKALB&query_place_id=ChIJaYoJANIrD4gRG-sCZzYZuSA"
  },
  {
    "id": "ChIJfY4j3JeYDogReIm6xZxyS7Y",
    "name": "Curaleaf IL Morris Dispensary",
    "city": "Morris",
    "state": "Illinois",
    "address": "2400 Hiawatha Pioneer Trl, Morris, IL 60450",
    "location": {
      "lat": 41.3713935,
      "lng": -88.4682278
    },
    "url": "https://www.google.com/maps/search/?api=1&query=Curaleaf%20IL%20Morris%20Dispensary&query_place_id=ChIJfY4j3JeYDogReIm6xZxyS7Y"
  },
  {
    "id": "ChIJXVEkVe_vDogRMhiD-aduT3E",
    "name": "Ivy Hall Dispensary - Montgomery",
    "city": "Montgomery",
    "state": "Illinois",
    "address": "1970 Caterpillar Dr, Montgomery, IL 60538",
    "location": {
      "lat": 41.718972,
      "lng": -88.3738326
    },
    "url": "https://www.google.com/maps/search/?api=1&query=Ivy%20Hall%20Dispensary%20-%20Montgomery&query_place_id=ChIJXVEkVe_vDogRMhiD-aduT3E"
  },
  {
    "id": "ChIJ_9gK3sXxDogRhFknDS7Dil0",
    "name": "Market 96 Neighborhood Dispensary",
    "city": "Oswego",
    "state": "Illinois",
    "address": "1144 Douglas Rd, Oswego, IL 60543",
    "location": {
      "lat": 41.7032266,
      "lng": -88.316471
    },
    "url": "https://www.google.com/maps/search/?api=1&query=Market%2096%20Neighborhood%20Dispensary&query_place_id=ChIJ_9gK3sXxDogRhFknDS7Dil0"
  },
  {
    "id": "ChIJqWukOs3kDogRG4c1WFFUPkk",
    "name": "Verilife Dispensary",
    "city": "North Aurora",
    "state": "Illinois",
    "address": "2080 W Orchard Rd, North Aurora, IL 60542",
    "location": {
      "lat": 41.8073388,
      "lng": -88.3726716
    },
    "url": "https://www.google.com/maps/search/?api=1&query=Verilife%20Dispensary&query_place_id=ChIJqWukOs3kDogRG4c1WFFUPkk"
  },
  {
    "id": "ChIJlYCXu0P7DogRtjolvLOUE4E",
    "name": "nuEra Aurora Dispensary",
    "city": "Aurora",
    "state": "Illinois",
    "address": "1415 Corporate Blvd, Aurora, IL 60502",
    "location": {
      "lat": 41.8023681,
      "lng": -88.2813262
    },
    "url": "https://www.google.com/maps/search/?api=1&query=nuEra%20Aurora%20Dispensary&query_place_id=ChIJlYCXu0P7DogRtjolvLOUE4E"
  },
  {
    "id": "ChIJe9j6iND5DogRgMUMk3gS3Uc",
    "name": "Prairie Cannabis Dispensary Naperville",
    "city": "Naperville",
    "state": "Illinois",
    "address": "4S120 Illinois Rte 59, Naperville, IL 60563",
    "location": {
      "lat": 41.8104245,
      "lng": -88.2044165
    },
    "url": "https://www.google.com/maps/search/?api=1&query=Prairie%20Cannabis%20Dispensary%20Naperville&query_place_id=ChIJe9j6iND5DogRgMUMk3gS3Uc"
  },
  {
    "id": "ChIJ4w3UOi73DogRCJwCEJmJCWA",
    "name": "Sunnyside Cannabis Dispensary - Naperville",
    "city": "Naperville",
    "state": "Illinois",
    "address": "2740 W 75th St, Naperville, IL 60564",
    "location": {
      "lat": 41.7465311,
      "lng": -88.2014547
    },
    "url": "https://www.google.com/maps/search/?api=1&query=Sunnyside%20Cannabis%20Dispensary%20-%20Naperville&query_place_id=ChIJ4w3UOi73DogRCJwCEJmJCWA"
  },
  {
    "id": "ChIJv3SMeKNTCYgRGfNDYYeZvb8",
    "name": "Verilife Dispensary",
    "city": "Ottawa",
    "state": "Illinois",
    "address": "4100 Columbus St, Ottawa, IL 61350",
    "location": {
      "lat": 41.3794952,
      "lng": -88.8352779
    },
    "url": "https://www.google.com/maps/search/?api=1&query=Verilife%20Dispensary&query_place_id=ChIJv3SMeKNTCYgRGfNDYYeZvb8"
  },
  {
    "id": "ChIJPzQ5-Fg_DogRw9AhKCkqsRc",
    "name": "Stash Dispensaries",
    "city": "Peru",
    "state": "Illinois",
    "address": "1320 38th St, Peru, IL 61354",
    "location": {
      "lat": 41.3582477,
      "lng": -89.123318
    },
    "url": "https://www.google.com/maps/search/?api=1&query=Stash%20Dispensaries&query_place_id=ChIJPzQ5-Fg_DogRw9AhKCkqsRc"
  },
  {
    "id": "ChIJl5iQxbxhCYgRF-75_o2ZphQ",
    "name": "Outer Limitz",
    "city": "Peru",
    "state": "Illinois",
    "address": "1746 US-6 Suite A, Peru, IL 61354",
    "location": {
      "lat": 41.3285335,
      "lng": -89.16788
    },
    "url": "https://www.google.com/maps/search/?api=1&query=Outer%20Limitz&query_place_id=ChIJl5iQxbxhCYgRF-75_o2ZphQ"
  },
  {
    "id": "ChIJ8SInkwCvCYgRm8x1RZxtxV0",
    "name": "Terrabis Dispensary Dixon",
    "city": "Dixon",
    "state": "Illinois",
    "address": "1679 S Galena Ave, Dixon, IL 61021",
    "location": {
      "lat": 41.826733,
      "lng": -89.4760969
    },
    "url": "https://www.google.com/maps/search/?api=1&query=Terrabis%20Dispensary%20Dixon&query_place_id=ChIJ8SInkwCvCYgRm8x1RZxtxV0"
  },
  {
    "id": "ChIJmVKuQWKZDogRumUiPMrt7qw",
    "name": "TreeHaus Dispensary",
    "city": "Morris",
    "state": "Illinois",
    "address": "50 Gore Rd, Morris, IL 60450",
    "location": {
      "lat": 41.392118,
      "lng": -88.4234624
    },
    "url": "https://www.google.com/maps/search/?api=1&query=TreeHaus%20Dispensary&query_place_id=ChIJmVKuQWKZDogRumUiPMrt7qw"
  },
  {
    "id": "ChIJBecq2V_BD4gRXbd1TLcYJmg",
    "name": "Windy City Cannabis",
    "city": "Highwood",
    "state": "Illinois",
    "address": "260 Green Bay Rd, Highwood, IL 60040",
    "location": {
      "lat": 42.2018088,
      "lng": -87.8101033
    },
    "url": "https://www.google.com/maps/search/?api=1&query=Windy%20City%20Cannabis&query_place_id=ChIJBecq2V_BD4gRXbd1TLcYJmg"
  },
  {
    "id": "ChIJIc4SgSjSD4gReLAK6g1h1S4",
    "name": "Dispensary33",
    "city": "Chicago",
    "state": "Illinois",
    "address": "5001 N Clark St, Chicago, IL 60640",
    "location": {
      "lat": 41.972687,
      "lng": -87.667711
    },
    "url": "https://www.google.com/maps/search/?api=1&query=Dispensary33&query_place_id=ChIJIc4SgSjSD4gReLAK6g1h1S4"
  },
  {
    "id": "ChIJJX7qbswtDogRreWQDbVGXU4",
    "name": "Chicago Cannabis Company - Lincoln Park",
    "city": "Chicago",
    "state": "Illinois",
    "address": "2501 N Halsted St, Chicago, IL 60614",
    "location": {
      "lat": 41.927403,
      "lng": -87.648475
    },
    "url": "https://www.google.com/maps/search/?api=1&query=Chicago%20Cannabis%20Company%20-%20Lincoln%20Park&query_place_id=ChIJJX7qbswtDogRreWQDbVGXU4"
  },
  {
    "id": "ChIJb5WAyTjJD4gRAr5MyMNyHg8",
    "name": "Consume Cannabis - Chicago",
    "city": "Chicago",
    "state": "Illinois",
    "address": "6428 N Milwaukee Ave, Chicago, IL 60631",
    "location": {
      "lat": 41.9978932,
      "lng": -87.7887662
    },
    "url": "https://www.google.com/maps/search/?api=1&query=Consume%20Cannabis%20-%20Chicago&query_place_id=ChIJb5WAyTjJD4gRAr5MyMNyHg8"
  },
  {
    "id": "ChIJ00QUZxfMD4gRwnT3aNx2T18",
    "name": "Cannabist",
    "city": "Chicago",
    "state": "Illinois",
    "address": "4758 N Milwaukee Ave, Chicago, IL 60630",
    "location": {
      "lat": 41.966937,
      "lng": -87.7601952
    },
    "url": "https://www.google.com/maps/search/?api=1&query=Cannabist&query_place_id=ChIJ00QUZxfMD4gRwnT3aNx2T18"
  },
  {
    "id": "ChIJNYTp5KUtDogRv9BKToeRjTo",
    "name": "Sunnyside Cannabis Dispensary - River North",
    "city": "Chicago",
    "state": "Illinois",
    "address": "436 N Clark St, Chicago, IL 60654",
    "location": {
      "lat": 41.8902846,
      "lng": -87.631245
    },
    "url": "https://www.google.com/maps/search/?api=1&query=Sunnyside%20Cannabis%20Dispensary%20-%20River%20North&query_place_id=ChIJNYTp5KUtDogRv9BKToeRjTo"
  },
  {
    "id": "ChIJf6X49-vHD4gRW_sg76A1jIU",
    "name": "BLOC Dispensary Outlet  Northfield",
    "city": "Northfield",
    "state": "Illinois",
    "address": "161 Waukegan Rd, Northfield, IL 60093",
    "location": {
      "lat": 42.0954567,
      "lng": -87.7977207
    },
    "url": "https://www.google.com/maps/search/?api=1&query=BLOC%20Dispensary%20Outlet%20%E2%80%93%20Northfield&query_place_id=ChIJf6X49-vHD4gRW_sg76A1jIU"
  },
  {
    "id": "ChIJL6YsMl71D4gRNHJQYCc2j3Q",
    "name": "Spark'd Dispensary + Lounge - Winthrop Harbor",
    "city": "Winthrop Harbor",
    "state": "Illinois",
    "address": "935 Sheridan Rd, Winthrop Harbor, IL 60096",
    "location": {
      "lat": 42.4774437,
      "lng": -87.8236252
    },
    "url": "https://www.google.com/maps/search/?api=1&query=Spark'd%20Dispensary%20%2B%20Lounge%20-%20Winthrop%20Harbor&query_place_id=ChIJL6YsMl71D4gRNHJQYCc2j3Q"
  },
  {
    "id": "ChIJlTVj4ALTD4gR0Y6yljGL8A4",
    "name": "MI Dispensary - Lincoln Park",
    "city": "Chicago",
    "state": "Illinois",
    "address": "2575 N Lincoln Ave, Chicago, IL 60614",
    "location": {
      "lat": 41.9287824,
      "lng": -87.6532034
    },
    "url": "https://www.google.com/maps/search/?api=1&query=%C3%9CMI%20Dispensary%20-%20Lincoln%20Park&query_place_id=ChIJlTVj4ALTD4gR0Y6yljGL8A4"
  },
  {
    "id": "ChIJm3wCfzvND4gRATD19S1_VuQ",
    "name": "BLOC Dispensary - Kedzie",
    "city": "Chicago",
    "state": "Illinois",
    "address": "3545 N Kedzie Ave, Chicago, IL 60618",
    "location": {
      "lat": 41.9462163,
      "lng": -87.7074942
    },
    "url": "https://www.google.com/maps/search/?api=1&query=BLOC%20Dispensary%20-%20Kedzie&query_place_id=ChIJm3wCfzvND4gRATD19S1_VuQ"
  },
  {
    "id": "ChIJF076WYTTD4gR4-JNn0gpLAs",
    "name": "Karma Club",
    "city": "Chicago",
    "state": "Illinois",
    "address": "1590 N Clybourn Ave, Chicago, IL 60642",
    "location": {
      "lat": 41.9104343,
      "lng": -87.6492881
    },
    "url": "https://www.google.com/maps/search/?api=1&query=Karma%20Club&query_place_id=ChIJF076WYTTD4gR4-JNn0gpLAs"
  },
  {
    "id": "ChIJOa2_HJotDogRhwmUd-6NpY0",
    "name": "Guaranteed Dispensary Chicago",
    "city": "Chicago",
    "state": "Illinois",
    "address": "620 N Fairbanks Ct, Chicago, IL 60611",
    "location": {
      "lat": 41.8931014,
      "lng": -87.6205751
    },
    "url": "https://www.google.com/maps/search/?api=1&query=Guaranteed%20Dispensary%20Chicago&query_place_id=ChIJOa2_HJotDogRhwmUd-6NpY0"
  },
  {
    "id": "ChIJ5egWCYYtDogReoN_BDkdC3k",
    "name": "Market 96 Neighborhood Dispensary",
    "city": "Chicago",
    "state": "Illinois",
    "address": "529 S Wells St, Chicago, IL 60607",
    "location": {
      "lat": 41.8752454,
      "lng": -87.6333596
    },
    "url": "https://www.google.com/maps/search/?api=1&query=Market%2096%20Neighborhood%20Dispensary&query_place_id=ChIJ5egWCYYtDogReoN_BDkdC3k"
  },
  {
    "id": "ChIJTQEdIBLND4gRZ9GxA_QxehU",
    "name": "Ivy Hall Dispensary - Logan Square",
    "city": "Chicago",
    "state": "Illinois",
    "address": "3115 W Armitage Ave, Chicago, IL 60647",
    "location": {
      "lat": 41.9171014,
      "lng": -87.7060954
    },
    "url": "https://www.google.com/maps/search/?api=1&query=Ivy%20Hall%20Dispensary%20-%20Logan%20Square&query_place_id=ChIJTQEdIBLND4gRZ9GxA_QxehU"
  },
  {
    "id": "ChIJcUzhc0vSD4gRzFqRyM3AHAo",
    "name": "Sunnyside Cannabis Dispensary - Wrigleyville",
    "city": "Chicago",
    "state": "Illinois",
    "address": "3524 N Clark St, Chicago, IL 60657",
    "location": {
      "lat": 41.9461415,
      "lng": -87.6560809
    },
    "url": "https://www.google.com/maps/search/?api=1&query=Sunnyside%20Cannabis%20Dispensary%20-%20Wrigleyville&query_place_id=ChIJcUzhc0vSD4gRzFqRyM3AHAo"
  },
  {
    "id": "ChIJwXT7ers1DogRTPupYU9oz64",
    "name": "BLOC Dispensary - Forest Park",
    "city": "Forest Park",
    "state": "Illinois",
    "address": "7216 Circle Ave, Forest Park, IL 60130",
    "location": {
      "lat": 41.8862626,
      "lng": -87.8059536
    },
    "url": "https://www.google.com/maps/search/?api=1&query=BLOC%20Dispensary%20-%20Forest%20Park&query_place_id=ChIJwXT7ers1DogRTPupYU9oz64"
  },
  {
    "id": "ChIJYztioXctDogR7iqxEZHQqS8",
    "name": "Bud and Rita's Dispensary West Town",
    "city": "Chicago",
    "state": "Illinois",
    "address": "1914 W Chicago Ave, Chicago, IL 60622",
    "location": {
      "lat": 41.8960585,
      "lng": -87.6752684
    },
    "url": "https://www.google.com/maps/search/?api=1&query=Bud%20and%20Rita's%20Dispensary%20West%20Town&query_place_id=ChIJYztioXctDogR7iqxEZHQqS8"
  },
  {
    "id": "ChIJ4aTgF_41DogRHrNKXnu1u58",
    "name": "Dutchess Cannabis",
    "city": "Oak Park",
    "state": "Illinois",
    "address": "1142 Lake St, Oak Park, IL 60301",
    "location": {
      "lat": 41.8887303,
      "lng": -87.8045108
    },
    "url": "https://www.google.com/maps/search/?api=1&query=Dutchess%20Cannabis&query_place_id=ChIJ4aTgF_41DogRHrNKXnu1u58"
  },
  {
    "id": "ChIJ3TpT3sXRD4gRD7s4jrS8mQU",
    "name": "Perception Cannabis",
    "city": "Chicago",
    "state": "Illinois",
    "address": "7000 N Clark St, Chicago, IL 60626",
    "location": {
      "lat": 42.0091358,
      "lng": -87.6743242
    },
    "url": "https://www.google.com/maps/search/?api=1&query=Perception%20Cannabis&query_place_id=ChIJ3TpT3sXRD4gRD7s4jrS8mQU"
  },
  {
    "id": "ChIJyb7GWr27D4gRl2uAFp2eViI",
    "name": "Tru Essence Dispensary - Arlington Heights",
    "city": "Arlington Heights",
    "state": "Illinois",
    "address": "792 E Rand Rd, Arlington Heights, IL 60004",
    "location": {
      "lat": 42.1068155,
      "lng": -87.9706333
    },
    "url": "https://www.google.com/maps/search/?api=1&query=Tru%20Essence%20Dispensary%20-%20Arlington%20Heights&query_place_id=ChIJyb7GWr27D4gRl2uAFp2eViI"
  }
]